{"fields":["id","nom","desserte","pmr","ascenseur","escalator","gid","last_update","last_update_fme","adresse","localise_face_a_adresse","commune","insee","zone","lon","lat"],"layer_name":"tcl_sytral.tclarret","nb_results":9840,"table_alias":null,"table_href":"https://data.grandlyon.com/fr/datapusher/ws/rdata/tcl_sytral.tclarret.json","values":[{"adresse":"9 AVENUE DU 24 AOUT 1944","ascenseur":false,"commune":"Corbas","desserte":"87:A,ZI1:A","escalator":false,"gid":24616,"id":1,"insee":"69273","last_update":"2025-10-28 05:04:22.421774","last_update_fme":"2025-10-28 05:04:22.421774","lat":45.682868740966,"localise_face_a_adresse":null,"lon":4.909324275377,"nom":"24 Août","pmr":true,"zone":"1"},{"adresse":"257 AVENUE JEAN JAURES","ascenseur":false,"commune":"Lyon 7e Arrondissement","desserte":"BRMB:A","escalator":false,"gid":29718,"id":40842,"insee":"69387","last_update":"2025-10-28 05:04:22.628263","last_update_fme":"2025-10-28 05:04:22.628263","lat":45.731967969734,"localise_face_a_adresse":null,"lon":4.834041002366,"nom":"Debourg","pmr":true,"zone":"1"},{"adresse":"61 RUE AMPERE","ascenseur":false,"commune":"Oullins-Pierre-Bénite","desserte":"C7:R","escalator":false,"gid":24617,"id":1000,"insee":"69149","last_update":"2025-10-28 05:04:22.421897","last_update_fme":"2025-10-28 05:04:22.421897","lat":45.70521531129,"localise_face_a_adresse":null,"lon":4.816354044796,"nom":"Garanjou","pmr":true,"zone":"1"},{"adresse":"100 AVENUE JULES GUESDE","ascenseur":false,"commune":"Vénissieux","desserte":"39:A,JD133:R","escalator":false,"gid":24618,"id":10006,"insee":"69259","last_update":"2025-10-28 05:04:22.421971","last_update_fme":"2025-10-28 05:04:22.421971","lat":45.70924804158,"localise_face_a_adresse":null,"lon":4.887283956869,"nom":"Curie - Jules Guesde","pmr":true,"zone":"1"},{"adresse":"109 AVENUE JULES GUESDE","ascenseur":false,"commune":"Vénissieux","desserte":"39:R,JD133:A","escalator":false,"gid":24619,"id":10007,"insee":"69259","last_update":"2025-10-28 05:04:22.422045","last_update_fme":"2025-10-28 05:04:22.422045","lat":45.709249329708,"localise_face_a_adresse":null,"lon":4.887365859502,"nom":"Curie - Jules Guesde","pmr":true,"zone":"1"},{"adresse":"22 QUAI DOCTEUR GAILLETON","ascenseur":false,"commune":"Lyon 2e Arrondissement","desserte":"JD972:R","escalator":false,"gid":24620,"id":10008,"insee":"69382","last_update":"2025-10-28 05:04:22.422122","last_update_fme":"2025-10-28 05:04:22.422122","lat":45.753975904882,"localise_face_a_adresse":null,"lon":4.834585243243,"nom":"Pont de l'Université","pmr":true,"zone":"1"},{"adresse":"41 RUE DAISY GEORGES MARTIN","ascenseur":false,"commune":"Irigny","desserte":"15:A,18:A,JD267:R","escalator":false,"gid":24621,"id":1001,"insee":"69100","last_update":"2025-10-28 05:04:22.422189","last_update_fme":"2025-10-28 05:04:22.422189","lat":45.678449890299,"localise_face_a_adresse":null,"lon":4.825549329165,"nom":"Garantèze","pmr":true,"zone":"1"},{"adresse":"130 AVENUE FRANCIS DE PRESSENSE","ascenseur":false,"commune":"Vénissieux","desserte":"35:A","escalator":false,"gid":24622,"id":10012,"insee":"69259","last_update":"2025-10-28 05:04:22.422265","last_update_fme":"2025-10-28 05:04:22.422265","lat":45.7233779613,"localise_face_a_adresse":null,"lon":4.865175997031,"nom":"Pressensé - Marrane","pmr":true,"zone":"1"},{"adresse":"1 RUE DE LA MAIRIE","ascenseur":false,"commune":"Francheville","desserte":"C20:A,C20E:A,JD211:R,JD982:R","escalator":false,"gid":24623,"id":10017,"insee":"69089","last_update":"2025-10-28 05:04:22.422351","last_update_fme":"2025-10-28 05:04:22.422351","lat":45.737043800658,"localise_face_a_adresse":null,"lon":4.764481040525,"nom":"Francheville Bourg","pmr":true,"zone":"1"},{"adresse":"6 PLACE DU BOURG","ascenseur":false,"commune":"Francheville","desserte":"C20:R,C20E:R,JD211:A,JD982:A","escalator":false,"gid":24624,"id":10018,"insee":"69089","last_update":"2025-10-28 05:04:22.422428","last_update_fme":"2025-10-28 05:04:22.422428","lat":45.736719693287,"localise_face_a_adresse":null,"lon":4.764068269569,"nom":"Francheville Bourg","pmr":true,"zone":"1"},{"adresse":"15TER RUE LOUIS THEVENET","ascenseur":false,"commune":"Lyon 4e Arrondissement","desserte":"S4A:R","escalator":false,"gid":26523,"id":3281,"insee":"69384","last_update":"2025-10-28 05:04:22.565929","last_update_fme":"2025-10-28 05:04:22.565929","lat":45.7794958822,"localise_face_a_adresse":null,"lon":4.83735253988,"nom":"Linossier - Richan","pmr":true,"zone":"1"},{"adresse":"49 RUE DE BELFORT","ascenseur":false,"commune":"Lyon 4e Arrondissement","desserte":"C13:A,PL2:A","escalator":false,"gid":26524,"id":3282,"insee":"69384","last_update":"2025-10-28 05:04:22.565995","last_update_fme":"2025-10-28 05:04:22.565995","lat":45.779963728818,"localise_face_a_adresse":null,"lon":4.834530774781,"nom":"Place Cdt Arnaud","pmr":true,"zone":"1"},{"adresse":"37 RUE D IVRY","ascenseur":false,"commune":"Lyon 4e Arrondissement","desserte":"S4A:R","escalator":false,"gid":26525,"id":3284,"insee":"69384","last_update":"2025-10-28 05:04:22.566063","last_update_fme":"2025-10-28 05:04:22.566063","lat":45.777120967606,"localise_face_a_adresse":null,"lon":4.836884357859,"nom":"Maurice Scève","pmr":true,"zone":"1"},{"adresse":"11 RUE D IVRY","ascenseur":false,"commune":"Lyon 4e Arrondissement","desserte":"S4A:R","escalator":false,"gid":26526,"id":3285,"insee":"69384","last_update":"2025-10-28 05:04:22.566135","last_update_fme":"2025-10-28 05:04:22.566135","lat":45.777197977779,"localise_face_a_adresse":null,"lon":4.833544046147,"nom":"Maison des Canuts","pmr":true,"zone":"1"},{"adresse":"19 BOULEVARD DE JODINO","ascenseur":false,"commune":"Vénissieux","desserte":"39:A","escalator":false,"gid":26527,"id":3286,"insee":"69259","last_update":"2025-10-28 05:04:22.566211","last_update_fme":"2025-10-28 05:04:22.566211","lat":45.691604088391,"localise_face_a_adresse":null,"lon":4.886291782366,"nom":"Georges Roudil","pmr":true,"zone":"1"},{"adresse":"19 BOULEVARD DE JODINO","ascenseur":false,"commune":"Vénissieux","desserte":"39:R","escalator":false,"gid":26528,"id":3287,"insee":"69259","last_update":"2025-10-28 05:04:22.566277","last_update_fme":"2025-10-28 05:04:22.566277","lat":45.692549029134,"localise_face_a_adresse":null,"lon":4.887484063799,"nom":"Georges Roudil","pmr":true,"zone":"1"},{"adresse":"82 RUE JEAN MOULIN","ascenseur":false,"commune":"Caluire-et-Cuire","desserte":"33:A,38:A,JD209:R,S5:A","escalator":false,"gid":26531,"id":329,"insee":"69034","last_update":"2025-10-28 05:04:22.566492","last_update_fme":"2025-10-28 05:04:22.566492","lat":45.799801964203,"localise_face_a_adresse":null,"lon":4.84761697536,"nom":"Caluire Centre","pmr":true,"zone":"1"},{"adresse":"1 AVENUE DE MONTLOUIS","ascenseur":false,"commune":"Champagne-au-Mont-d'Or","desserte":"66:R","escalator":false,"gid":26532,"id":32942,"insee":"69040","last_update":"2025-10-28 05:04:22.566560","last_update_fme":"2025-10-28 05:04:22.566560","lat":45.790323881737,"localise_face_a_adresse":null,"lon":4.787960683822,"nom":"Mont Louis","pmr":true,"zone":"1"},{"adresse":"1 PLACE D ARSONVAL","ascenseur":false,"commune":"Lyon 3e Arrondissement","desserte":"24:R,24:A","escalator":false,"gid":26533,"id":32962,"insee":"69383","last_update":"2025-10-28 05:04:22.566658","last_update_fme":"2025-10-28 05:04:22.566658","lat":45.742934742529,"localise_face_a_adresse":null,"lon":4.878539690791,"nom":"Grange Blanche","pmr":true,"zone":"1"},{"adresse":"135 RUE HELENE BOUCHER","ascenseur":false,"commune":"Rillieux-la-Pape","desserte":"59:A,S8:A","escalator":false,"gid":26534,"id":3298,"insee":"69286","last_update":"2025-10-28 05:04:22.566798","last_update_fme":"2025-10-28 05:04:22.566798","lat":45.826767006687,"localise_face_a_adresse":null,"lon":4.906327997727,"nom":"Z.I. Château d'eau","pmr":true,"zone":"1"},{"adresse":"5 AVENUE DU PROGRES","ascenseur":false,"commune":"Chassieu","desserte":"76:R","escalator":false,"gid":26626,"id":34109,"insee":"69271","last_update":"2025-10-28 05:04:22.573823","last_update_fme":"2025-10-28 05:04:22.573823","lat":45.737766400093,"localise_face_a_adresse":null,"lon":4.968813297575,"nom":"Chassieu Place","pmr":false,"zone":"1"},{"adresse":"32 RUE DAISY GEORGES MARTIN","ascenseur":false,"commune":"Irigny","desserte":"15:R,18:R,JD267:A,JD979:A","escalator":false,"gid":24625,"id":1002,"insee":"69100","last_update":"2025-10-28 05:04:22.422498","last_update_fme":"2025-10-28 05:04:22.422498","lat":45.678439759111,"localise_face_a_adresse":null,"lon":4.825600234174,"nom":"Garantèze","pmr":true,"zone":"1"},{"adresse":"14 AVENUE DE VERDUN","ascenseur":false,"commune":"Meyzieu","desserte":"67:A,JD135:R,JD136:R","escalator":false,"gid":24645,"id":10075,"insee":"69282","last_update":"2025-10-28 05:04:22.424008","last_update_fme":"2025-10-28 05:04:22.424008","lat":45.774769017293,"localise_face_a_adresse":null,"lon":4.986475941422,"nom":"Combe au Loup","pmr":true,"zone":"1"},{"adresse":"14 AVENUE DE VERDUN","ascenseur":false,"commune":"Meyzieu","desserte":"67:R,JD136:A","escalator":false,"gid":24646,"id":10076,"insee":"69282","last_update":"2025-10-28 05:04:22.424078","last_update_fme":"2025-10-28 05:04:22.424078","lat":45.774741771491,"localise_face_a_adresse":null,"lon":4.986199981652,"nom":"Combe au Loup","pmr":true,"zone":"1"},{"adresse":"32 RUE COMMANDANT CHARCOT","ascenseur":false,"commune":"Lyon 5e Arrondissement","desserte":"49:A,C20:A,C20E:A,JD982:R","escalator":false,"gid":24648,"id":10081,"insee":"69385","last_update":"2025-10-28 05:04:22.424219","last_update_fme":"2025-10-28 05:04:22.424219","lat":45.755145825903,"localise_face_a_adresse":null,"lon":4.807751116429,"nom":"St-Irenée - Cx Blanche","pmr":true,"zone":"1"},{"adresse":"28 RUE COMMANDANT CHARCOT","ascenseur":false,"commune":"Lyon 5e Arrondissement","desserte":"49:R,C20:R,C20E:R,JD982:A","escalator":false,"gid":24649,"id":10082,"insee":"69385","last_update":"2025-10-28 05:04:22.424293","last_update_fme":"2025-10-28 05:04:22.424293","lat":45.755167430314,"localise_face_a_adresse":null,"lon":4.807996398254,"nom":"St-Irenée - Cx Blanche","pmr":true,"zone":"1"},{"adresse":"214 CHEMIN DE POMMIER","ascenseur":false,"commune":"Meyzieu","desserte":"85:A,JD123:R","escalator":false,"gid":24778,"id":10401,"insee":"69282","last_update":"2025-10-28 05:04:22.434213","last_update_fme":"2025-10-28 05:04:22.434213","lat":45.7781470043,"localise_face_a_adresse":null,"lon":5.014260045657,"nom":"Boileau","pmr":true,"zone":"1"},{"adresse":"212 CHEMIN DE POMMIER","ascenseur":false,"commune":"Meyzieu","desserte":"85:R,JD123:A","escalator":false,"gid":24779,"id":10402,"insee":"69282","last_update":"2025-10-28 05:04:22.434285","last_update_fme":"2025-10-28 05:04:22.434285","lat":45.778155035465,"localise_face_a_adresse":null,"lon":5.013843868817,"nom":"Boileau","pmr":true,"zone":"1"},{"adresse":"6 RUE DE LA REPUBLIQUE","ascenseur":false,"commune":"Meyzieu","desserte":"85:A,JD121:A","escalator":false,"gid":24780,"id":10405,"insee":"69282","last_update":"2025-10-28 05:04:22.434364","last_update_fme":"2025-10-28 05:04:22.434364","lat":45.769641095395,"localise_face_a_adresse":null,"lon":4.987201943583,"nom":"Peyssilieu","pmr":true,"zone":"1"},{"adresse":"3 RUE DE LA REPUBLIQUE","ascenseur":false,"commune":"Meyzieu","desserte":"85:R,JD121:R","escalator":false,"gid":24781,"id":10406,"insee":"69282","last_update":"2025-10-28 05:04:22.434431","last_update_fme":"2025-10-28 05:04:22.434431","lat":45.769701029767,"localise_face_a_adresse":null,"lon":4.987217952215,"nom":"Peyssilieu","pmr":true,"zone":"1"},{"adresse":"2 BOULEVARD PIERRE MENDES FRANCE","ascenseur":false,"commune":"Meyzieu","desserte":"85:R,JD121:R","escalator":false,"gid":24782,"id":10408,"insee":"69282","last_update":"2025-10-28 05:04:22.434506","last_update_fme":"2025-10-28 05:04:22.434506","lat":45.766628694908,"localise_face_a_adresse":null,"lon":4.990876825403,"nom":"Meyzieu Mendès France","pmr":true,"zone":"1"},{"adresse":"45 RUE CHATELAIN","ascenseur":false,"commune":"Sainte-Foy-lès-Lyon","desserte":"90:A","escalator":false,"gid":26563,"id":33288,"insee":"69202","last_update":"2025-10-28 05:04:22.568889","last_update_fme":"2025-10-28 05:04:22.568889","lat":45.736197257286,"localise_face_a_adresse":null,"lon":4.794688966704,"nom":"Ste Foy Châtelain","pmr":false,"zone":"1"},{"adresse":"13 AVENUE BARTHELEMY THIMONNIER","ascenseur":false,"commune":"Caluire-et-Cuire","desserte":"ZI4:R","escalator":false,"gid":26579,"id":335,"insee":"69034","last_update":"2025-10-28 05:04:22.570163","last_update_fme":"2025-10-28 05:04:22.570163","lat":45.805115442032,"localise_face_a_adresse":null,"lon":4.869021038367,"nom":"Caluire Thimonnier","pmr":true,"zone":"1"},{"adresse":"0 ROUTE DE SAINT TRIVIER","ascenseur":false,"commune":"Cailloux-sur-Fontaines","desserte":"77:A,JD73:A","escalator":false,"gid":24626,"id":10025,"insee":"69033","last_update":"2025-10-28 05:04:22.422571","last_update_fme":"2025-10-28 05:04:22.422571","lat":45.853371965963,"localise_face_a_adresse":null,"lon":4.878126002373,"nom":"La Dangereuse","pmr":true,"zone":"1"},{"adresse":"0 ROUTE DE SAINT TRIVIER","ascenseur":false,"commune":"Cailloux-sur-Fontaines","desserte":"77:R,JD73:R,JD74:A,JD76:R,JD79:R","escalator":false,"gid":24627,"id":10026,"insee":"69033","last_update":"2025-10-28 05:04:22.422667","last_update_fme":"2025-10-28 05:04:22.422667","lat":45.853338040452,"localise_face_a_adresse":null,"lon":4.878006048148,"nom":"La Dangereuse","pmr":true,"zone":"1"},{"adresse":"11 BOULEVARD ANDRE BOULLOCHE","ascenseur":false,"commune":"Saint-Priest","desserte":"52:A","escalator":false,"gid":24650,"id":10084,"insee":"69290","last_update":"2025-10-28 05:04:22.424368","last_update_fme":"2025-10-28 05:04:22.424368","lat":45.72016998193,"localise_face_a_adresse":null,"lon":4.923879026047,"nom":"Porte des Alpes","pmr":true,"zone":"1"},{"adresse":"12 RUE DU 24 MARS 1852","ascenseur":false,"commune":"Lyon 9e Arrondissement","desserte":"C14:A","escalator":false,"gid":24655,"id":1012,"insee":"69389","last_update":"2025-10-28 05:04:22.424730","last_update_fme":"2025-10-28 05:04:22.424730","lat":45.781226690744,"localise_face_a_adresse":null,"lon":4.805089502292,"nom":"Gare de Vaise-G.Collomb","pmr":true,"zone":"1"},{"adresse":"49 AVENUE LACASSAGNE","ascenseur":false,"commune":"Lyon 3e Arrondissement","desserte":"25:A,C13:R,C16:A,JD981:A","escalator":false,"gid":24657,"id":10129,"insee":"69383","last_update":"2025-10-28 05:04:22.424946","last_update_fme":"2025-10-28 05:04:22.424946","lat":45.753087469126,"localise_face_a_adresse":null,"lon":4.869017839753,"nom":"Dauphiné -Lacassagne","pmr":true,"zone":"1"},{"adresse":"37 AVENUE DU PROFESSEUR PAUL SANTY","ascenseur":false,"commune":"Écully","desserte":"JD151:R,JD151:A,JD174:R,JD975:R","escalator":false,"gid":27009,"id":37459,"insee":"69081","last_update":"2025-10-28 05:04:22.603213","last_update_fme":"2025-10-28 05:04:22.603213","lat":45.771175277472,"localise_face_a_adresse":null,"lon":4.771145377382,"nom":"Paul Santy","pmr":false,"zone":"1"},{"adresse":"4 AVENUE MARECHAL FOCH","ascenseur":false,"commune":"Tassin-la-Demi-Lune","desserte":"5:R,JD975:A","escalator":false,"gid":27010,"id":37460,"insee":"69244","last_update":"2025-10-28 05:04:22.603288","last_update_fme":"2025-10-28 05:04:22.603288","lat":45.76290697939,"localise_face_a_adresse":null,"lon":4.773467209852,"nom":"Trois Renards","pmr":false,"zone":"1"},{"adresse":"27 AVENUE DU CHATER","ascenseur":false,"commune":"Francheville","desserte":"14:A,JD975:R","escalator":false,"gid":24721,"id":10276,"insee":"69089","last_update":"2025-10-28 05:04:22.429670","last_update_fme":"2025-10-28 05:04:22.429670","lat":45.743198414869,"localise_face_a_adresse":null,"lon":4.772054507579,"nom":"Chauderaie","pmr":true,"zone":"1"},{"adresse":"15 AVENUE GEORGES POMPIDOU","ascenseur":false,"commune":"Lyon 3e Arrondissement","desserte":"C11:R,C9:R","escalator":false,"gid":24740,"id":10324,"insee":"69383","last_update":"2025-10-28 05:04:22.431111","last_update_fme":"2025-10-28 05:04:22.431111","lat":45.759127445277,"localise_face_a_adresse":null,"lon":4.862621694418,"nom":"Georges Pompidou","pmr":true,"zone":"1"},{"adresse":"47 AVENUE GEORGES POMPIDOU","ascenseur":false,"commune":"Lyon 3e Arrondissement","desserte":"C11:R,C9:R","escalator":false,"gid":24741,"id":10326,"insee":"69383","last_update":"2025-10-28 05:04:22.431181","last_update_fme":"2025-10-28 05:04:22.431181","lat":45.7594056573,"localise_face_a_adresse":null,"lon":4.86865284989,"nom":"Sacré Coeur","pmr":true,"zone":"1"},{"adresse":"3 RUE FRANCOIS GILLET","ascenseur":false,"commune":"Lyon 3e Arrondissement","desserte":"C11:A,C9:A","escalator":false,"gid":24742,"id":10327,"insee":"69383","last_update":"2025-10-28 05:04:22.431255","last_update_fme":"2025-10-28 05:04:22.431255","lat":45.759618594056,"localise_face_a_adresse":null,"lon":4.873575119762,"nom":"Ferrandière","pmr":true,"zone":"1"},{"adresse":"8 RUE FRANCOIS GILLET","ascenseur":false,"commune":"Lyon 3e Arrondissement","desserte":"C11:R,C9:R","escalator":false,"gid":24743,"id":10328,"insee":"69383","last_update":"2025-10-28 05:04:22.431320","last_update_fme":"2025-10-28 05:04:22.431320","lat":45.759672958406,"localise_face_a_adresse":null,"lon":4.873141033697,"nom":"Ferrandière","pmr":true,"zone":"1"},{"adresse":"21 CHEMIN DE LA PINEDE","ascenseur":false,"commune":"Écully","desserte":"JD174:R,JD174:A,JD841:A,JD841:R","escalator":false,"gid":27011,"id":37477,"insee":"69081","last_update":"2025-10-28 05:04:22.603428","last_update_fme":"2025-10-28 05:04:22.603428","lat":45.779389006738,"localise_face_a_adresse":null,"lon":4.760877981636,"nom":"Fontville","pmr":false,"zone":"1"},{"adresse":"0 CHEMIN DE GRANDVAUX","ascenseur":false,"commune":"Écully","desserte":"JD151:A,JD174:R,S15:A","escalator":false,"gid":27012,"id":37484,"insee":"69081","last_update":"2025-10-28 05:04:22.603710","last_update_fme":"2025-10-28 05:04:22.603710","lat":45.772989958409,"localise_face_a_adresse":null,"lon":4.774503065761,"nom":"Grandvaux - Prieuré","pmr":false,"zone":"1"},{"adresse":"67 RUE VICTOR HUGO","ascenseur":false,"commune":"Meyzieu","desserte":"95:A,JD122:A,JD136:A,JD948:A","escalator":false,"gid":27555,"id":43645,"insee":"69282","last_update":"2025-10-28 05:04:22.651714","last_update_fme":"2025-10-28 05:04:22.651714","lat":45.786145289925,"localise_face_a_adresse":null,"lon":4.993517418418,"nom":"Charcot","pmr":true,"zone":"1"},{"adresse":"120 BOULEVARD EMILE ZOLA","ascenseur":false,"commune":"Oullins-Pierre-Bénite","desserte":"11:R,12:R,14:R","escalator":false,"gid":28247,"id":47103,"insee":"69149","last_update":"2025-10-28 05:04:22.706821","last_update_fme":"2025-10-28 05:04:22.706821","lat":45.721540001766,"localise_face_a_adresse":null,"lon":4.793012993328,"nom":"Les Bottières","pmr":true,"zone":"1"},{"adresse":"87 GRANDE RUE","ascenseur":false,"commune":"Oullins-Pierre-Bénite","desserte":"BRMB:A","escalator":false,"gid":29719,"id":47634,"insee":"69149","last_update":"2025-10-28 05:04:22.728815","last_update_fme":"2025-10-28 05:04:22.728815","lat":45.715774999788,"localise_face_a_adresse":null,"lon":4.80923597898,"nom":"Orsel","pmr":false,"zone":"1"},{"adresse":"225 ROUTE DE GENAS","ascenseur":false,"commune":"Villeurbanne","desserte":"25:R,C9:R","escalator":false,"gid":29155,"id":50124,"insee":"69266","last_update":"2025-10-28 05:04:22.837104","last_update_fme":"2025-10-28 05:04:22.837104","lat":45.752561037417,"localise_face_a_adresse":null,"lon":4.899837037187,"nom":"Montchat Kimmerling","pmr":false,"zone":"1"},{"adresse":"90 RUE DE LA POUDRETTE","ascenseur":false,"commune":"Villeurbanne","desserte":"68:R,68:A","escalator":false,"gid":29156,"id":50129,"insee":"69266","last_update":"2025-10-28 05:04:22.837178","last_update_fme":"2025-10-28 05:04:22.837178","lat":45.758819024566,"localise_face_a_adresse":null,"lon":4.921202003727,"nom":"Vaulx-en-Velin La Soie","pmr":false,"zone":"1"},{"adresse":"30 RUE DE LA POUDRETTE","ascenseur":false,"commune":"Villeurbanne","desserte":"16:A,52:A","escalator":false,"gid":29157,"id":50131,"insee":"69266","last_update":"2025-10-28 05:04:22.837243","last_update_fme":"2025-10-28 05:04:22.837243","lat":45.761956044579,"localise_face_a_adresse":null,"lon":4.919970995824,"nom":"Vaulx-en-Velin La Soie","pmr":false,"zone":"1"},{"adresse":"199 AVENUE FRANKLIN ROOSEVELT","ascenseur":false,"commune":"Vaulx-en-Velin","desserte":"52:A,79:R","escalator":false,"gid":24756,"id":10362,"insee":"69256","last_update":"2025-10-28 05:04:22.432568","last_update_fme":"2025-10-28 05:04:22.432568","lat":45.748386988122,"localise_face_a_adresse":null,"lon":4.933513048293,"nom":"Roosevelt C.Commercial","pmr":true,"zone":"1"},{"adresse":"97 RUE ELISEE RECLUS","ascenseur":false,"commune":"Décines-Charpieu","desserte":"79:A,JD137:R","escalator":false,"gid":24757,"id":10363,"insee":"69275","last_update":"2025-10-28 05:04:22.432683","last_update_fme":"2025-10-28 05:04:22.432683","lat":45.750882021296,"localise_face_a_adresse":null,"lon":4.941125978468,"nom":"Décines Verlaine","pmr":true,"zone":"1"},{"adresse":"43 RUE SULLY","ascenseur":false,"commune":"Décines-Charpieu","desserte":"76:R","escalator":false,"gid":24767,"id":10372,"insee":"69275","last_update":"2025-10-28 05:04:22.433414","last_update_fme":"2025-10-28 05:04:22.433414","lat":45.768258141888,"localise_face_a_adresse":null,"lon":4.975211776202,"nom":"Georges Brassens","pmr":true,"zone":"1"},{"adresse":"134 AVENUE PAUL SANTY","ascenseur":false,"commune":"Lyon 8e Arrondissement","desserte":"C25:A","escalator":false,"gid":24777,"id":1040,"insee":"69388","last_update":"2025-10-28 05:04:22.434142","last_update_fme":"2025-10-28 05:04:22.434142","lat":45.727771959329,"localise_face_a_adresse":null,"lon":4.877942259695,"nom":"Général André","pmr":true,"zone":"1"},{"adresse":"445 ROUTE DU CAILLOU","ascenseur":false,"commune":"Cailloux-sur-Fontaines","desserte":"77:A,JD61:R,JD73:A,JD81:R,JD81:A","escalator":false,"gid":24628,"id":10028,"insee":"69033","last_update":"2025-10-28 05:04:22.422734","last_update_fme":"2025-10-28 05:04:22.422734","lat":45.85017737584,"localise_face_a_adresse":null,"lon":4.876972667863,"nom":"Diligences","pmr":true,"zone":"1"},{"adresse":"383 ROUTE DU CAILLOU","ascenseur":false,"commune":"Cailloux-sur-Fontaines","desserte":"77:R,JD61:A,JD73:R,JD79:R","escalator":false,"gid":24629,"id":10029,"insee":"69033","last_update":"2025-10-28 05:04:22.422808","last_update_fme":"2025-10-28 05:04:22.422808","lat":45.850172743519,"localise_face_a_adresse":null,"lon":4.876779237126,"nom":"Diligences","pmr":true,"zone":"1"},{"adresse":"50 AVENUE DES FRERES MONTGOLFIER","ascenseur":false,"commune":"Genas","desserte":"128:R,ZI5:A","escalator":false,"gid":24630,"id":10032,"insee":"69277","last_update":"2025-10-28 05:04:22.422883","last_update_fme":"2025-10-28 05:04:22.422883","lat":45.72350704215,"localise_face_a_adresse":null,"lon":4.977269166978,"nom":"Z.I. Rocade Est","pmr":false,"zone":"2"},{"adresse":"50 AVENUE DES FRERES MONTGOLFIER","ascenseur":false,"commune":"Genas","desserte":"128:A,ZI5:R","escalator":false,"gid":24631,"id":10033,"insee":"69277","last_update":"2025-10-28 05:04:22.422950","last_update_fme":"2025-10-28 05:04:22.422950","lat":45.723423016216,"localise_face_a_adresse":null,"lon":4.977768034026,"nom":"Z.I. Rocade Est","pmr":false,"zone":"2"},{"adresse":"33 AVENUE DES FRERES MONTGOLFIER","ascenseur":false,"commune":"Chassieu","desserte":"128:R,ZI5:A","escalator":false,"gid":24632,"id":10034,"insee":"69271","last_update":"2025-10-28 05:04:22.423018","last_update_fme":"2025-10-28 05:04:22.423018","lat":45.725279979678,"localise_face_a_adresse":null,"lon":4.971159368433,"nom":"Fresnel - Restaurant ZI","pmr":false,"zone":"1"},{"adresse":"31 AVENUE DES FRERES MONTGOLFIER","ascenseur":false,"commune":"Chassieu","desserte":"128:A,ZI5:R","escalator":false,"gid":24633,"id":10035,"insee":"69271","last_update":"2025-10-28 05:04:22.423089","last_update_fme":"2025-10-28 05:04:22.423089","lat":45.725348596646,"localise_face_a_adresse":null,"lon":4.971304029135,"nom":"Fresnel - Restaurant ZI","pmr":false,"zone":"1"},{"adresse":"47 BOULEVARD MARIUS VIVIER MERLE","ascenseur":false,"commune":"Lyon 3e Arrondissement","desserte":"C13:A","escalator":false,"gid":29159,"id":50141,"insee":"69383","last_update":"2025-10-28 05:04:22.837386","last_update_fme":"2025-10-28 05:04:22.837386","lat":45.759571977011,"localise_face_a_adresse":null,"lon":4.858359022364,"nom":"Gare Part-Dieu V.Merle","pmr":false,"zone":"1"},{"adresse":"111 AVENUE ROGER SALENGRO","ascenseur":false,"commune":"Villeurbanne","desserte":"37:R,69:A","escalator":false,"gid":29160,"id":71,"insee":"69266","last_update":"2025-10-28 05:04:22.837460","last_update_fme":"2025-10-28 05:04:22.837460","lat":45.778139358049,"localise_face_a_adresse":null,"lon":4.878932034355,"nom":"Antonins","pmr":true,"zone":"1"},{"adresse":"50 RUE DE LA VILLETTE","ascenseur":false,"commune":"Lyon 3e Arrondissement","desserte":"RX:A,RX:R","escalator":false,"gid":19011,"id":41194,"insee":"69383","last_update":"2025-10-28 05:04:22.837613","last_update_fme":"2025-10-28 05:04:22.837613","lat":45.76013598796,"localise_face_a_adresse":false,"lon":4.862040055391,"nom":"Gare Part-Dieu Villette","pmr":true,"zone":"1"},{"adresse":"14 AVENUE DOCTEUR SCHWEITZER","ascenseur":false,"commune":"Meyzieu","desserte":"RX:R","escalator":false,"gid":19053,"id":41198,"insee":"69282","last_update":"2025-10-28 05:04:22.837690","last_update_fme":"2025-10-28 05:04:22.837690","lat":45.7677503534,"localise_face_a_adresse":false,"lon":5.031597250536,"nom":"Meyzieu Z.i.","pmr":true,"zone":"1"},{"adresse":"0 AEROPORT SAINT EXUPERY","ascenseur":false,"commune":"Colombier-Saugnieu","desserte":"RX:A,RX:R","escalator":false,"gid":19014,"id":41199,"insee":"69299","last_update":"2025-10-28 05:04:22.837761","last_update_fme":"2025-10-28 05:04:22.837761","lat":45.721123982577,"localise_face_a_adresse":false,"lon":5.075430006795,"nom":"Aéroport St Exupéry -RX","pmr":true,"zone":"2"},{"adresse":"0 AVENUE DU CHATER","ascenseur":false,"commune":"Francheville","desserte":"14:A","escalator":false,"gid":29162,"id":50179,"insee":"69089","last_update":"2025-10-28 05:04:22.837836","last_update_fme":"2025-10-28 05:04:22.837836","lat":45.735072003107,"localise_face_a_adresse":null,"lon":4.776466038433,"nom":"Francheville Taffignon","pmr":false,"zone":"1"},{"adresse":"47 AVENUE LACASSAGNE","ascenseur":false,"commune":"Lyon 3e Arrondissement","desserte":"25:R,C13:A,C16:R,JD981:R","escalator":false,"gid":24658,"id":10130,"insee":"69383","last_update":"2025-10-28 05:04:22.425015","last_update_fme":"2025-10-28 05:04:22.425015","lat":45.753284964626,"localise_face_a_adresse":null,"lon":4.86886195759,"nom":"Dauphiné -Lacassagne","pmr":true,"zone":"1"},{"adresse":"41 RUE DES GOBINS","ascenseur":false,"commune":"Charly","desserte":"15E:A,78:A,JD261:R,JD6:R,JD979:R","escalator":false,"gid":27384,"id":423,"insee":"69046","last_update":"2025-10-28 05:04:22.637956","last_update_fme":"2025-10-28 05:04:22.637956","lat":45.649395654338,"localise_face_a_adresse":null,"lon":4.793269363924,"nom":"Charly Centre","pmr":true,"zone":"2"},{"adresse":"15BIS RUE EMILE ZOLA","ascenseur":false,"commune":"Oullins-Pierre-Bénite","desserte":"C7:A","escalator":false,"gid":27385,"id":42318,"insee":"69149","last_update":"2025-10-28 05:04:22.638024","last_update_fme":"2025-10-28 05:04:22.638024","lat":45.705043017823,"localise_face_a_adresse":null,"lon":4.819077010749,"nom":"Emile Zola","pmr":true,"zone":"1"},{"adresse":"15BIS RUE EMILE ZOLA","ascenseur":false,"commune":"Oullins-Pierre-Bénite","desserte":"C7:R","escalator":false,"gid":27386,"id":42319,"insee":"69149","last_update":"2025-10-28 05:04:22.638096","last_update_fme":"2025-10-28 05:04:22.638096","lat":45.705061723859,"localise_face_a_adresse":null,"lon":4.818984200501,"nom":"Emile Zola","pmr":true,"zone":"1"},{"adresse":"20 RUE DES TABLES CLAUDIENNES","ascenseur":false,"commune":"Lyon 1er Arrondissement","desserte":"S6:A","escalator":false,"gid":24659,"id":10137,"insee":"69381","last_update":"2025-10-28 05:04:22.425087","last_update_fme":"2025-10-28 05:04:22.425087","lat":45.770903627864,"localise_face_a_adresse":null,"lon":4.833128892317,"nom":"Tables Claudiennes","pmr":true,"zone":"1"},{"adresse":"111 AVENUE PAUL SANTY","ascenseur":false,"commune":"Lyon 8e Arrondissement","desserte":"C25:R","escalator":false,"gid":24783,"id":1041,"insee":"69388","last_update":"2025-10-28 05:04:22.434593","last_update_fme":"2025-10-28 05:04:22.434593","lat":45.727741988888,"localise_face_a_adresse":null,"lon":4.878116954554,"nom":"Général André","pmr":true,"zone":"1"},{"adresse":"235 BOULEVARD PINEL","ascenseur":false,"commune":"Bron","desserte":"131:A,26:A,79:A","escalator":false,"gid":24784,"id":1043,"insee":"69029","last_update":"2025-10-28 05:04:22.434759","last_update_fme":"2025-10-28 05:04:22.434759","lat":45.726783015218,"localise_face_a_adresse":null,"lon":4.887030054432,"nom":"Général Frère","pmr":true,"zone":"1"},{"adresse":"57 AVENUE SIDOINE APOLLINAIRE","ascenseur":false,"commune":"Lyon 9e Arrondissement","desserte":"19:A,3:A,66:A","escalator":false,"gid":24785,"id":10435,"insee":"69389","last_update":"2025-10-28 05:04:22.434840","last_update_fme":"2025-10-28 05:04:22.434840","lat":45.770850156926,"localise_face_a_adresse":null,"lon":4.796803616884,"nom":"Piscine de Vaise","pmr":true,"zone":"1"},{"adresse":"130 ROUTE DE GRENOBLE","ascenseur":false,"commune":"Saint-Priest","desserte":"C201:A","escalator":false,"gid":27387,"id":42354,"insee":"69290","last_update":"2025-10-28 05:04:22.638171","last_update_fme":"2025-10-28 05:04:22.638171","lat":45.710588040443,"localise_face_a_adresse":null,"lon":4.977055048716,"nom":"R.N.6 - Ambroise Paré","pmr":true,"zone":"1"},{"adresse":"7 CHEMIN DE BEL AIR","ascenseur":false,"commune":"Caluire-et-Cuire","desserte":"S5:R,S5:A","escalator":false,"gid":27388,"id":42356,"insee":"69034","last_update":"2025-10-28 05:04:22.638237","last_update_fme":"2025-10-28 05:04:22.638237","lat":45.798033016518,"localise_face_a_adresse":null,"lon":4.864745068141,"nom":"Vassieux Centre","pmr":false,"zone":"1"},{"adresse":"32 AVENUE GENERAL LECLERC","ascenseur":false,"commune":"Rillieux-la-Pape","desserte":"59:R,C5:R","escalator":false,"gid":27389,"id":42361,"insee":"69286","last_update":"2025-10-28 05:04:22.638315","last_update_fme":"2025-10-28 05:04:22.638315","lat":45.814133999579,"localise_face_a_adresse":null,"lon":4.901173997246,"nom":"MJC Ctre chorégraphique","pmr":true,"zone":"1"},{"adresse":"29 AVENUE SIDOINE APOLLINAIRE","ascenseur":false,"commune":"Lyon 9e Arrondissement","desserte":"19:A,3:A,66:A","escalator":false,"gid":24786,"id":10437,"insee":"69389","last_update":"2025-10-28 05:04:22.434914","last_update_fme":"2025-10-28 05:04:22.434914","lat":45.772783962638,"localise_face_a_adresse":null,"lon":4.795743037691,"nom":"Apollinaire Bourbonnais","pmr":true,"zone":"1"},{"adresse":"1088 AVENUE VICTOR HUGO","ascenseur":false,"commune":"Rillieux-la-Pape","desserte":"33:R,JD201:A,JD63:A","escalator":false,"gid":24787,"id":1044,"insee":"69286","last_update":"2025-10-28 05:04:22.434982","last_update_fme":"2025-10-28 05:04:22.434982","lat":45.820817933316,"localise_face_a_adresse":null,"lon":4.880404555661,"nom":"Genevrey","pmr":true,"zone":"1"},{"adresse":"0 ROUTE D ECULLY","ascenseur":false,"commune":"Dardilly","desserte":"3:R,JD151:A,JD176:A,JD36:A,JD697:R,JD841:A","escalator":false,"gid":24788,"id":10441,"insee":"69072","last_update":"2025-10-28 05:04:22.435062","last_update_fme":"2025-10-28 05:04:22.435062","lat":45.79748681853,"localise_face_a_adresse":null,"lon":4.759416671378,"nom":"Dardilly Les Mouilles","pmr":true,"zone":"1"},{"adresse":"330 ROUTE D ECULLY","ascenseur":false,"commune":"Dardilly","desserte":"3:A,JD151:R","escalator":false,"gid":24789,"id":10442,"insee":"69072","last_update":"2025-10-28 05:04:22.435138","last_update_fme":"2025-10-28 05:04:22.435138","lat":45.800992312353,"localise_face_a_adresse":null,"lon":4.756302457798,"nom":"Cogny","pmr":true,"zone":"1"},{"adresse":"31 ROUTE DE LYON","ascenseur":false,"commune":"Neuville-sur-Saône","desserte":"40:R,70:R","escalator":false,"gid":24857,"id":1063,"insee":"69143","last_update":"2025-10-28 05:04:22.440277","last_update_fme":"2025-10-28 05:04:22.440277","lat":45.868598983923,"localise_face_a_adresse":null,"lon":4.839665042378,"nom":"Gorgeat","pmr":true,"zone":"1"},{"adresse":"18 AVENUE GENERAL LECLERC","ascenseur":false,"commune":"Rillieux-la-Pape","desserte":"59:A,C5:A","escalator":false,"gid":27390,"id":42362,"insee":"69286","last_update":"2025-10-28 05:04:22.638389","last_update_fme":"2025-10-28 05:04:22.638389","lat":45.816812472811,"localise_face_a_adresse":null,"lon":4.904935996595,"nom":"Collège P. Emile Victor","pmr":true,"zone":"1"},{"adresse":"18 AVENUE GENERAL LECLERC","ascenseur":false,"commune":"Rillieux-la-Pape","desserte":"59:R,C5:R","escalator":false,"gid":27391,"id":42363,"insee":"69286","last_update":"2025-10-28 05:04:22.638454","last_update_fme":"2025-10-28 05:04:22.638454","lat":45.81669797412,"localise_face_a_adresse":null,"lon":4.905191975306,"nom":"Collège P. Emile Victor","pmr":true,"zone":"1"},{"adresse":"51 BOULEVARD MARIUS VIVIER MERLE","ascenseur":false,"commune":"Lyon 3e Arrondissement","desserte":"25:R,25:A,C25:R,C7:R,C9:R,C9:A","escalator":false,"gid":29158,"id":50140,"insee":"69383","last_update":"2025-10-28 05:04:22.837312","last_update_fme":"2025-10-28 05:04:22.837312","lat":45.759151034003,"localise_face_a_adresse":null,"lon":4.858428972075,"nom":"Gare Part-Dieu V.Merle","pmr":false,"zone":"1"},{"adresse":"5 RUE D ARSONVAL","ascenseur":false,"commune":"Chassieu","desserte":"76:A,ZI5:R","escalator":false,"gid":24634,"id":10037,"insee":"69271","last_update":"2025-10-28 05:04:22.423229","last_update_fme":"2025-10-28 05:04:22.423229","lat":45.730358977555,"localise_face_a_adresse":null,"lon":4.971345038969,"nom":"Chassieu Jean Perrin","pmr":true,"zone":"1"},{"adresse":"20 RUE NATIONALE","ascenseur":false,"commune":"Jonage","desserte":"95:A","escalator":false,"gid":29171,"id":50120,"insee":"69279","last_update":"2025-10-28 05:04:22.838484","last_update_fme":"2025-10-28 05:04:22.838484","lat":45.793071016032,"localise_face_a_adresse":null,"lon":5.037512945782,"nom":"Les Biesses","pmr":false,"zone":"2"},{"adresse":"7 AVENUE ROBERTO ROSSELLINI","ascenseur":false,"commune":"Villeurbanne","desserte":"70:A,C2:A,JD981:R,PL1:A","escalator":false,"gid":27423,"id":42559,"insee":"69266","last_update":"2025-10-28 05:04:22.640872","last_update_fme":"2025-10-28 05:04:22.640872","lat":45.778699963554,"localise_face_a_adresse":null,"lon":4.862450964721,"nom":"Rossellini","pmr":true,"zone":"1"},{"adresse":"6 AVENUE ROBERTO ROSSELLINI","ascenseur":false,"commune":"Villeurbanne","desserte":"70:R,C2:R,JD981:A","escalator":false,"gid":27424,"id":42560,"insee":"69266","last_update":"2025-10-28 05:04:22.640949","last_update_fme":"2025-10-28 05:04:22.640949","lat":45.778535978494,"localise_face_a_adresse":null,"lon":4.862426065877,"nom":"Rossellini","pmr":true,"zone":"1"},{"adresse":"14 BOULEVARD DU 11 NOVEMBRE 1918","ascenseur":false,"commune":"Villeurbanne","desserte":"70:A,C2:A,C26:R","escalator":false,"gid":27425,"id":42561,"insee":"69266","last_update":"2025-10-28 05:04:22.641014","last_update_fme":"2025-10-28 05:04:22.641014","lat":45.779510197548,"localise_face_a_adresse":null,"lon":4.860856451813,"nom":"Tête d'Or - Stalingrad","pmr":true,"zone":"1"},{"adresse":"2 BOULEVARD DU 11 NOVEMBRE 1918","ascenseur":false,"commune":"Villeurbanne","desserte":"70:R,C2:R,C26:A","escalator":false,"gid":27426,"id":42562,"insee":"69266","last_update":"2025-10-28 05:04:22.641083","last_update_fme":"2025-10-28 05:04:22.641083","lat":45.779461691945,"localise_face_a_adresse":null,"lon":4.860211002752,"nom":"Tête d'Or - Stalingrad","pmr":true,"zone":"1"},{"adresse":"12 RUE DE LA RESISTANCE","ascenseur":false,"commune":"Vaulx-en-Velin","desserte":"C8:R,C8:A","escalator":false,"gid":27427,"id":42563,"insee":"69256","last_update":"2025-10-28 05:04:22.641154","last_update_fme":"2025-10-28 05:04:22.641154","lat":45.785809001031,"localise_face_a_adresse":null,"lon":4.919750032963,"nom":"Vaulx - Résistance","pmr":true,"zone":"1"},{"adresse":"2B AVENUE DES COMBATTANTS EN AFN 1952 1962","ascenseur":false,"commune":"Rillieux-la-Pape","desserte":"ZI4:A","escalator":false,"gid":27428,"id":42574,"insee":"69286","last_update":"2025-10-28 05:04:22.641228","last_update_fme":"2025-10-28 05:04:22.641228","lat":45.814923040909,"localise_face_a_adresse":null,"lon":4.893792012121,"nom":"Rillieux - Les Alagniers","pmr":true,"zone":"1"},{"adresse":"0 AVENUE DES COMBATTANTS EN AFN 1952 1962","ascenseur":false,"commune":"Rillieux-la-Pape","desserte":"33:A,33:R,ZI4:R","escalator":false,"gid":27429,"id":42575,"insee":"69286","last_update":"2025-10-28 05:04:22.641293","last_update_fme":"2025-10-28 05:04:22.641293","lat":45.814599669698,"localise_face_a_adresse":null,"lon":4.893813395025,"nom":"Rillieux - Les Alagniers","pmr":true,"zone":"1"},{"adresse":"546 RUE DE L ETRA","ascenseur":false,"commune":"Charly","desserte":"15E:R,78:R,JD264:R,JD979:A","escalator":false,"gid":27430,"id":426,"insee":"69046","last_update":"2025-10-28 05:04:22.641369","last_update_fme":"2025-10-28 05:04:22.641369","lat":45.644217578367,"localise_face_a_adresse":null,"lon":4.793385083683,"nom":"Charly Eglise","pmr":true,"zone":"2"},{"adresse":"109 CHEMIN DU CHARBONNIER","ascenseur":false,"commune":"Vénissieux","desserte":"ZI1:A","escalator":false,"gid":27431,"id":42614,"insee":"69259","last_update":"2025-10-28 05:04:22.641443","last_update_fme":"2025-10-28 05:04:22.641443","lat":45.689229035745,"localise_face_a_adresse":null,"lon":4.909878235598,"nom":"99 chemin du Charbonnier","pmr":false,"zone":"1"},{"adresse":"109 CHEMIN DU CHARBONNIER","ascenseur":false,"commune":"Vénissieux","desserte":"ZI1:R","escalator":false,"gid":27432,"id":42615,"insee":"69259","last_update":"2025-10-28 05:04:22.641522","last_update_fme":"2025-10-28 05:04:22.641522","lat":45.689263236335,"localise_face_a_adresse":null,"lon":4.909956895323,"nom":"99 chemin du Charbonnier","pmr":false,"zone":"1"},{"adresse":"52 COURS RICHARD VITTON","ascenseur":false,"commune":"Lyon 3e Arrondissement","desserte":"C9:A","escalator":false,"gid":27433,"id":42616,"insee":"69383","last_update":"2025-10-28 05:04:22.641601","last_update_fme":"2025-10-28 05:04:22.641601","lat":45.753525302825,"localise_face_a_adresse":null,"lon":4.891013150295,"nom":"Montchat Place Ronde","pmr":true,"zone":"1"},{"adresse":"5 RUE ANTOINE VACHER","ascenseur":false,"commune":"Meyzieu","desserte":"67:R,95:R","escalator":false,"gid":27434,"id":42634,"insee":"69282","last_update":"2025-10-28 05:04:22.641674","last_update_fme":"2025-10-28 05:04:22.641674","lat":45.766956008696,"localise_face_a_adresse":null,"lon":5.00377404981,"nom":"Meyzieu Ch.De Gaulle","pmr":true,"zone":"1"},{"adresse":"93 AVENUE DU PROGRES","ascenseur":false,"commune":"Chassieu","desserte":"76:R","escalator":false,"gid":24635,"id":10038,"insee":"69271","last_update":"2025-10-28 05:04:22.423302","last_update_fme":"2025-10-28 05:04:22.423302","lat":45.724882475843,"localise_face_a_adresse":null,"lon":4.962387949722,"nom":"Chassieu Arago","pmr":true,"zone":"1"},{"adresse":"93 AVENUE DU PROGRES","ascenseur":false,"commune":"Chassieu","desserte":"76:A","escalator":false,"gid":24636,"id":10039,"insee":"69271","last_update":"2025-10-28 05:04:22.423377","last_update_fme":"2025-10-28 05:04:22.423377","lat":45.72527119755,"localise_face_a_adresse":null,"lon":4.962702097334,"nom":"Chassieu Arago","pmr":true,"zone":"1"},{"adresse":"27 RUE DU PROGRES","ascenseur":false,"commune":"Saint-Priest","desserte":"76:R","escalator":false,"gid":24637,"id":10040,"insee":"69290","last_update":"2025-10-28 05:04:22.423442","last_update_fme":"2025-10-28 05:04:22.423442","lat":45.718086428896,"localise_face_a_adresse":null,"lon":4.958529859765,"nom":"Mi Plaine - Pélossier","pmr":true,"zone":"1"},{"adresse":"27 RUE DU PROGRES","ascenseur":false,"commune":"Saint-Priest","desserte":"76:A","escalator":false,"gid":24638,"id":10041,"insee":"69290","last_update":"2025-10-28 05:04:22.423510","last_update_fme":"2025-10-28 05:04:22.423510","lat":45.717593988426,"localise_face_a_adresse":null,"lon":4.958416452075,"nom":"Mi Plaine - Pélossier","pmr":true,"zone":"1"},{"adresse":"11 RUE PRAINET","ascenseur":false,"commune":"Décines-Charpieu","desserte":"57:A","escalator":false,"gid":24639,"id":10045,"insee":"69275","last_update":"2025-10-28 05:04:22.423584","last_update_fme":"2025-10-28 05:04:22.423584","lat":45.766412036358,"localise_face_a_adresse":null,"lon":4.970911034468,"nom":"Ruffinières","pmr":true,"zone":"1"},{"adresse":"4 RUE PRAINET","ascenseur":false,"commune":"Décines-Charpieu","desserte":"57:R","escalator":false,"gid":24640,"id":10046,"insee":"69275","last_update":"2025-10-28 05:04:22.423660","last_update_fme":"2025-10-28 05:04:22.423660","lat":45.767394425563,"localise_face_a_adresse":null,"lon":4.970591385417,"nom":"Ruffinières","pmr":true,"zone":"1"},{"adresse":"5 RUE DE VERDUN","ascenseur":false,"commune":"Décines-Charpieu","desserte":"57:A","escalator":false,"gid":24641,"id":10047,"insee":"69275","last_update":"2025-10-28 05:04:22.423726","last_update_fme":"2025-10-28 05:04:22.423726","lat":45.765150992939,"localise_face_a_adresse":null,"lon":4.970403950929,"nom":"Décines Verdun","pmr":true,"zone":"1"},{"adresse":"10 RUE DU JARDIN DES PLANTES","ascenseur":false,"commune":"Lyon 1er Arrondissement","desserte":"C13:R,C18:R,S6:R","escalator":false,"gid":24660,"id":10139,"insee":"69381","last_update":"2025-10-28 05:04:22.425162","last_update_fme":"2025-10-28 05:04:22.425162","lat":45.769635992573,"localise_face_a_adresse":null,"lon":4.830333033416,"nom":"Mairie du 1er","pmr":true,"zone":"1"},{"adresse":"5 RUE DU JARDIN DES PLANTES","ascenseur":false,"commune":"Lyon 1er Arrondissement","desserte":"C13:A,C18:A,PL2:A,S6:A","escalator":false,"gid":24661,"id":10140,"insee":"69381","last_update":"2025-10-28 05:04:22.425227","last_update_fme":"2025-10-28 05:04:22.425227","lat":45.769675838745,"localise_face_a_adresse":null,"lon":4.83005058978,"nom":"Mairie du 1er","pmr":true,"zone":"1"},{"adresse":"10 RUE DE LA REPUBLIQUE","ascenseur":false,"commune":"Genas","desserte":"C200:A,JD120:A,JD130:R,JD25:A,JD294:R,JD941:A,JD943:A","escalator":false,"gid":24680,"id":1018,"insee":"69277","last_update":"2025-10-28 05:04:22.426695","last_update_fme":"2025-10-28 05:04:22.426695","lat":45.732521967664,"localise_face_a_adresse":null,"lon":4.996674976257,"nom":"Genas Place République","pmr":true,"zone":"2"},{"adresse":"221 BOULEVARD PINEL","ascenseur":false,"commune":"Bron","desserte":"26:A,79:A","escalator":false,"gid":24682,"id":10188,"insee":"69029","last_update":"2025-10-28 05:04:22.426837","last_update_fme":"2025-10-28 05:04:22.426837","lat":45.730214988525,"localise_face_a_adresse":null,"lon":4.887488950077,"nom":"Mermoz - Pinel","pmr":true,"zone":"1"},{"adresse":"91 RUE DENFERT ROCHEREAU","ascenseur":false,"commune":"Lyon 4e Arrondissement","desserte":"33:R","escalator":false,"gid":24689,"id":10199,"insee":"69384","last_update":"2025-10-28 05:04:22.427358","last_update_fme":"2025-10-28 05:04:22.427358","lat":45.778492566795,"localise_face_a_adresse":null,"lon":4.828224875294,"nom":"Hénon","pmr":true,"zone":"1"},{"adresse":"77 RUE DE CUIRE","ascenseur":false,"commune":"Lyon 4e Arrondissement","desserte":"33:A","escalator":false,"gid":24690,"id":10200,"insee":"69384","last_update":"2025-10-28 05:04:22.427434","last_update_fme":"2025-10-28 05:04:22.427434","lat":45.781819996942,"localise_face_a_adresse":null,"lon":4.829249940214,"nom":"Résidence E.Charret","pmr":true,"zone":"1"},{"adresse":"41 RUE ANTOINE VACHER","ascenseur":false,"commune":"Meyzieu","desserte":"67:R,95:R,JD121:R","escalator":false,"gid":27435,"id":42635,"insee":"69282","last_update":"2025-10-28 05:04:22.641748","last_update_fme":"2025-10-28 05:04:22.641748","lat":45.768854038327,"localise_face_a_adresse":null,"lon":5.002921970906,"nom":"Vacher","pmr":true,"zone":"1"},{"adresse":"75 RUE DE CUIRE","ascenseur":false,"commune":"Lyon 4e Arrondissement","desserte":"33:R","escalator":false,"gid":24691,"id":10201,"insee":"69384","last_update":"2025-10-28 05:04:22.427499","last_update_fme":"2025-10-28 05:04:22.427499","lat":45.781510038841,"localise_face_a_adresse":null,"lon":4.829183015677,"nom":"Résidence E.Charret","pmr":true,"zone":"1"},{"adresse":"6 CHEMIN DE LA PLACE","ascenseur":false,"commune":"Chassieu","desserte":"76:R","escalator":false,"gid":24642,"id":10051,"insee":"69271","last_update":"2025-10-28 05:04:22.423800","last_update_fme":"2025-10-28 05:04:22.423800","lat":45.746175288557,"localise_face_a_adresse":null,"lon":4.972211319217,"nom":"Chassieu Le Haut","pmr":true,"zone":"1"},{"adresse":"1 AVENUE DE BOHLEN","ascenseur":false,"commune":"Vaulx-en-Velin","desserte":"52:R,67:A,ZI3:A,ZI4:A","escalator":false,"gid":27202,"id":39938,"insee":"69256","last_update":"2025-10-28 05:04:22.623232","last_update_fme":"2025-10-28 05:04:22.623232","lat":45.764986826515,"localise_face_a_adresse":null,"lon":4.921576583072,"nom":"Carré de Soie","pmr":true,"zone":"1"},{"adresse":"1 ROUTE DE LYON","ascenseur":false,"commune":"Feyzin","desserte":"60:R,JD190:A,JD260:R","escalator":false,"gid":27204,"id":39941,"insee":"69276","last_update":"2025-10-28 05:04:22.623368","last_update_fme":"2025-10-28 05:04:22.623368","lat":45.688245966681,"localise_face_a_adresse":null,"lon":4.861648040949,"nom":"Hôp. Feyzin Vénissieux","pmr":true,"zone":"1"},{"adresse":"128 AVENUE BARTHELEMY BUYER","ascenseur":false,"commune":"Lyon 5e Arrondissement","desserte":"55:A,90:A","escalator":false,"gid":28210,"id":46977,"insee":"69385","last_update":"2025-10-28 05:04:22.703855","last_update_fme":"2025-10-28 05:04:22.703855","lat":45.763512856557,"localise_face_a_adresse":null,"lon":4.800245869562,"nom":"Buyer - Gai Vallon","pmr":true,"zone":"1"},{"adresse":"125 AVENUE BARTHELEMY BUYER","ascenseur":false,"commune":"Lyon 5e Arrondissement","desserte":"55:R,90:R","escalator":false,"gid":28211,"id":46978,"insee":"69385","last_update":"2025-10-28 05:04:22.703921","last_update_fme":"2025-10-28 05:04:22.703921","lat":45.763075671126,"localise_face_a_adresse":null,"lon":4.801312342302,"nom":"Buyer - Gai Vallon","pmr":true,"zone":"1"},{"adresse":"13 CHEMIN DE DECINES","ascenseur":false,"commune":"Chassieu","desserte":"76:A","escalator":false,"gid":24643,"id":10052,"insee":"69271","last_update":"2025-10-28 05:04:22.423875","last_update_fme":"2025-10-28 05:04:22.423875","lat":45.746237036681,"localise_face_a_adresse":null,"lon":4.973392004424,"nom":"Chassieu Le Haut","pmr":true,"zone":"1"},{"adresse":"4 AVENUE JEAN JAURES","ascenseur":false,"commune":"Lyon 7e Arrondissement","desserte":"BRMB:R,C12:A,C14:R,C5:R,JD980:A,PL3:R","escalator":false,"gid":24644,"id":10068,"insee":"69387","last_update":"2025-10-28 05:04:22.423942","last_update_fme":"2025-10-28 05:04:22.423942","lat":45.753453378773,"localise_face_a_adresse":null,"lon":4.846712578622,"nom":"Saxe - Gambetta","pmr":true,"zone":"1"},{"adresse":"22 ROUTE DE LA TOUR DE SALVAGNY","ascenseur":false,"commune":"Dardilly","desserte":"3:A,3:R,JD32:R,JD36:R,JD36:A,JD818:A,JD818:R","escalator":false,"gid":24791,"id":10444,"insee":"69072","last_update":"2025-10-28 05:04:22.435273","last_update_fme":"2025-10-28 05:04:22.435273","lat":45.822655104316,"localise_face_a_adresse":null,"lon":4.748888270789,"nom":"Dardilly le Paillet","pmr":false,"zone":"1"},{"adresse":"0 AVENUE GRANDCLEMENT","ascenseur":false,"commune":"Vaulx-en-Velin","desserte":"JD917:R,JD917:A","escalator":false,"gid":28212,"id":46979,"insee":"69256","last_update":"2025-10-28 05:04:22.703990","last_update_fme":"2025-10-28 05:04:22.703990","lat":45.770318989104,"localise_face_a_adresse":null,"lon":4.919757988298,"nom":"Place Roger Laurent","pmr":false,"zone":"1"},{"adresse":"21 RUE NATIONALE","ascenseur":false,"commune":"Jonage","desserte":"95:R,JD123:A,JD123:R,JD946:R,JD946:A","escalator":false,"gid":29172,"id":50181,"insee":"69279","last_update":"2025-10-28 05:04:22.838549","last_update_fme":"2025-10-28 05:04:22.838549","lat":45.792745037647,"localise_face_a_adresse":null,"lon":5.036655972462,"nom":"Les Biesses","pmr":false,"zone":"2"},{"adresse":"20 ROUTE DE LIMONEST","ascenseur":false,"commune":"Dardilly","desserte":"3:A,GE4:A,JD151:R,JD171:R,JD32:R,JD843:R","escalator":false,"gid":24792,"id":10445,"insee":"69072","last_update":"2025-10-28 05:04:22.435346","last_update_fme":"2025-10-28 05:04:22.435346","lat":45.823778974392,"localise_face_a_adresse":null,"lon":4.755292991018,"nom":"Le Bouquis","pmr":true,"zone":"1"},{"adresse":"0 CHEMIN DE CHARRIERE","ascenseur":false,"commune":"Dardilly","desserte":"3:R,GE4:R,JD151:A,JD171:A,JD32:A,JD697:R,JD843:A","escalator":false,"gid":24795,"id":10448,"insee":"69072","last_update":"2025-10-28 05:04:22.435567","last_update_fme":"2025-10-28 05:04:22.435567","lat":45.823052958577,"localise_face_a_adresse":null,"lon":4.757467014249,"nom":"Les Marsaults","pmr":true,"zone":"1"},{"adresse":"7 CHEMIN DU DODIN","ascenseur":false,"commune":"Dardilly","desserte":"3:A,3:R","escalator":false,"gid":24796,"id":10449,"insee":"69072","last_update":"2025-10-28 05:04:22.435647","last_update_fme":"2025-10-28 05:04:22.435647","lat":45.817709000042,"localise_face_a_adresse":null,"lon":4.761315008331,"nom":"Dardilly Le Jubin","pmr":false,"zone":"1"},{"adresse":"23 BOULEVARD DES BELGES","ascenseur":false,"commune":"Lyon 6e Arrondissement","desserte":"38:A,C1:A","escalator":false,"gid":24800,"id":10457,"insee":"69386","last_update":"2025-10-28 05:04:22.435949","last_update_fme":"2025-10-28 05:04:22.435949","lat":45.775039143538,"localise_face_a_adresse":null,"lon":4.847890756042,"nom":"Muséum","pmr":true,"zone":"1"},{"adresse":"28 BOULEVARD DES BELGES","ascenseur":false,"commune":"Lyon 6e Arrondissement","desserte":"38:R,C1:R","escalator":false,"gid":24801,"id":10458,"insee":"69386","last_update":"2025-10-28 05:04:22.436016","last_update_fme":"2025-10-28 05:04:22.436016","lat":45.774723353663,"localise_face_a_adresse":null,"lon":4.848326550623,"nom":"Muséum","pmr":true,"zone":"1"},{"adresse":"43 MONTEE SAINT LAURENT","ascenseur":false,"commune":"Lyon 5e Arrondissement","desserte":"46:R,49:R,C19:R,C20E:R,JD982:A","escalator":false,"gid":24825,"id":10525,"insee":"69385","last_update":"2025-10-28 05:04:22.437805","last_update_fme":"2025-10-28 05:04:22.437805","lat":45.750701575939,"localise_face_a_adresse":null,"lon":4.814995984254,"nom":"1ère D.F.L.","pmr":true,"zone":"1"},{"adresse":"29 CHEMIN DU TRONCHON","ascenseur":false,"commune":"Champagne-au-Mont-d'Or","desserte":"21:A,GE4:A,GE4:R","escalator":false,"gid":24829,"id":10530,"insee":"69040","last_update":"2025-10-28 05:04:22.438103","last_update_fme":"2025-10-28 05:04:22.438103","lat":45.802259973556,"localise_face_a_adresse":null,"lon":4.776916064644,"nom":"Dupuy","pmr":true,"zone":"1"},{"adresse":"60 MONTEE DE LA BOUCLE","ascenseur":false,"commune":"Lyon 4e Arrondissement","desserte":"38:R,JD202:R,JD203:R","escalator":false,"gid":24859,"id":10638,"insee":"69384","last_update":"2025-10-28 05:04:22.440417","last_update_fme":"2025-10-28 05:04:22.440417","lat":45.779745443472,"localise_face_a_adresse":null,"lon":4.840695769412,"nom":"Pont Churchill RD","pmr":true,"zone":"1"},{"adresse":"8 RUE DU 19 MARS 1962","ascenseur":false,"commune":"Vénissieux","desserte":"60:A,JD22:A","escalator":false,"gid":24860,"id":1064,"insee":"69259","last_update":"2025-10-28 05:04:22.440486","last_update_fme":"2025-10-28 05:04:22.440486","lat":45.701295441268,"localise_face_a_adresse":null,"lon":4.863758528804,"nom":"Grand Chassagnon","pmr":false,"zone":"1"},{"adresse":"20 RUE GASPARIN","ascenseur":false,"commune":"Lyon 2e Arrondissement","desserte":"S1:R","escalator":false,"gid":24876,"id":10684,"insee":"69382","last_update":"2025-10-28 05:04:22.441665","last_update_fme":"2025-10-28 05:04:22.441665","lat":45.75837281698,"localise_face_a_adresse":null,"lon":4.833177475822,"nom":"Simon Maupin","pmr":false,"zone":"1"},{"adresse":"21 AVENUE DE LA RESISTANCE","ascenseur":false,"commune":"Saint-Germain-au-Mont-d'Or","desserte":"96:A,96:R,JD242:A,JD242:R","escalator":false,"gid":24896,"id":10748,"insee":"69207","last_update":"2025-10-28 05:04:22.443121","last_update_fme":"2025-10-28 05:04:22.443121","lat":45.879670973323,"localise_face_a_adresse":null,"lon":4.804545011242,"nom":"St Germain Village","pmr":true,"zone":"2"},{"adresse":"113 RUE DU 1 MARS 1943","ascenseur":false,"commune":"Villeurbanne","desserte":"C26:R","escalator":false,"gid":24897,"id":1075,"insee":"69266","last_update":"2025-10-28 05:04:22.443196","last_update_fme":"2025-10-28 05:04:22.443196","lat":45.760089998602,"localise_face_a_adresse":null,"lon":4.889012949477,"nom":"Grandclément","pmr":false,"zone":"1"},{"adresse":"121 RUE DU 1 MARS 1943","ascenseur":false,"commune":"Villeurbanne","desserte":"C26:A","escalator":false,"gid":24898,"id":1078,"insee":"69266","last_update":"2025-10-28 05:04:22.443262","last_update_fme":"2025-10-28 05:04:22.443262","lat":45.760038005652,"localise_face_a_adresse":null,"lon":4.888948037137,"nom":"Grandclément","pmr":true,"zone":"1"},{"adresse":"60 AVENUE ROGER SALENGRO","ascenseur":false,"commune":"Vaulx-en-Velin","desserte":"68:R,JD136:A","escalator":false,"gid":24899,"id":10796,"insee":"69256","last_update":"2025-10-28 05:04:22.443344","last_update_fme":"2025-10-28 05:04:22.443344","lat":45.757766451251,"localise_face_a_adresse":null,"lon":4.927872909851,"nom":"Cité Tase","pmr":false,"zone":"1"},{"adresse":"61 AVENUE ROGER SALENGRO","ascenseur":false,"commune":"Vaulx-en-Velin","desserte":"52:R,68:R,JD135:R,JD136:R,ZI5:R","escalator":false,"gid":24900,"id":10797,"insee":"69256","last_update":"2025-10-28 05:04:22.443420","last_update_fme":"2025-10-28 05:04:22.443420","lat":45.758326961337,"localise_face_a_adresse":null,"lon":4.928755008558,"nom":"Cité Tase","pmr":true,"zone":"1"},{"adresse":"3 AVENUE JEAN MERMOZ","ascenseur":false,"commune":"Chassieu","desserte":"68:R,JD125:R,JD137:A,ZI5:R","escalator":false,"gid":24903,"id":10802,"insee":"69271","last_update":"2025-10-28 05:04:22.443630","last_update_fme":"2025-10-28 05:04:22.443630","lat":45.744385614688,"localise_face_a_adresse":null,"lon":4.933131092366,"nom":"Sept Chemins","pmr":true,"zone":"1"},{"adresse":"378 ROUTE DE GENAS","ascenseur":false,"commune":"Bron","desserte":"24:A,25:A,52:R,JD130:R","escalator":false,"gid":27438,"id":42663,"insee":"69029","last_update":"2025-10-28 05:04:22.641961","last_update_fme":"2025-10-28 05:04:22.641961","lat":45.746086020543,"localise_face_a_adresse":null,"lon":4.926588943351,"nom":"Salengro-Genas","pmr":true,"zone":"1"},{"adresse":"13 RUE SERGENT MICHEL BERTHET","ascenseur":false,"commune":"Lyon 9e Arrondissement","desserte":"PL3:A","escalator":false,"gid":28135,"id":46702,"insee":"69389","last_update":"2025-10-28 05:04:22.697866","last_update_fme":"2025-10-28 05:04:22.697866","lat":45.775660991083,"localise_face_a_adresse":null,"lon":4.805086015736,"nom":"Valmy","pmr":false,"zone":"1"},{"adresse":"0 RUE DES COMBES","ascenseur":false,"commune":"Jonage","desserte":"JD123:A,JD123:R,JD946:R,JD946:A","escalator":false,"gid":28148,"id":46734,"insee":"69279","last_update":"2025-10-28 05:04:22.698835","last_update_fme":"2025-10-28 05:04:22.698835","lat":45.788410039282,"localise_face_a_adresse":null,"lon":5.035414961147,"nom":"Jonage Combes","pmr":false,"zone":"2"},{"adresse":"0 BOULEVARD PHILIPPE REYDELLET","ascenseur":false,"commune":"Chaponost","desserte":"11:A","escalator":false,"gid":28207,"id":46973,"insee":"69043","last_update":"2025-10-28 05:04:22.703638","last_update_fme":"2025-10-28 05:04:22.703638","lat":45.704871024587,"localise_face_a_adresse":null,"lon":4.752302963901,"nom":"Reydellet - Les Arcs","pmr":false,"zone":"2"},{"adresse":"0 BOULEVARD PHILIPPE REYDELLET","ascenseur":false,"commune":"Chaponost","desserte":"11:R","escalator":false,"gid":28208,"id":46974,"insee":"69043","last_update":"2025-10-28 05:04:22.703704","last_update_fme":"2025-10-28 05:04:22.703704","lat":45.704835014625,"localise_face_a_adresse":null,"lon":4.752228030903,"nom":"Reydellet - Les Arcs","pmr":false,"zone":"2"},{"adresse":"18 COURS SUCHET","ascenseur":false,"commune":"Lyon 2e Arrondissement","desserte":"63:A,S1:R","escalator":false,"gid":28209,"id":46975,"insee":"69382","last_update":"2025-10-28 05:04:22.703779","last_update_fme":"2025-10-28 05:04:22.703779","lat":45.747715966694,"localise_face_a_adresse":null,"lon":4.821804051608,"nom":"Claudius Collonge","pmr":true,"zone":"1"},{"adresse":"18 RUE STALINGRAD","ascenseur":false,"commune":"Oullins-Pierre-Bénite","desserte":"17:A","escalator":false,"gid":28278,"id":47179,"insee":"69149","last_update":"2025-10-28 05:04:22.709054","last_update_fme":"2025-10-28 05:04:22.709054","lat":45.705909003211,"localise_face_a_adresse":null,"lon":4.82345000884,"nom":"Gare de Pierre-Bénite","pmr":true,"zone":"1"},{"adresse":"8 RUE JULES VALLES","ascenseur":false,"commune":"Mions","desserte":"62:A,JD195:R","escalator":false,"gid":24651,"id":10089,"insee":"69283","last_update":"2025-10-28 05:04:22.424433","last_update_fme":"2025-10-28 05:04:22.424433","lat":45.654068004485,"localise_face_a_adresse":null,"lon":4.949630951916,"nom":"Mions Jules Vallès","pmr":false,"zone":"1"},{"adresse":"56 RUE SEVERINE","ascenseur":false,"commune":"Villeurbanne","desserte":"C17:R","escalator":false,"gid":24652,"id":10092,"insee":"69266","last_update":"2025-10-28 05:04:22.424503","last_update_fme":"2025-10-28 05:04:22.424503","lat":45.751210405864,"localise_face_a_adresse":null,"lon":4.914705957833,"nom":"Place de la Paix","pmr":true,"zone":"1"},{"adresse":"21 RUE LAMARTINE","ascenseur":false,"commune":"Genas","desserte":"128:R,JD25:R,JD251:A","escalator":false,"gid":24653,"id":101,"insee":"69277","last_update":"2025-10-28 05:04:22.424575","last_update_fme":"2025-10-28 05:04:22.424575","lat":45.741967932359,"localise_face_a_adresse":null,"lon":5.022484112993,"nom":"Genas - Jean Mermoz","pmr":false,"zone":"2"},{"adresse":"30 RUE PAUL BERT","ascenseur":false,"commune":"Vénissieux","desserte":"35:A","escalator":false,"gid":28644,"id":47868,"insee":"69259","last_update":"2025-10-28 05:04:22.737392","last_update_fme":"2025-10-28 05:04:22.737392","lat":45.700652984248,"localise_face_a_adresse":null,"lon":4.888080026884,"nom":"Croizat - Paul Bert","pmr":false,"zone":"1"},{"adresse":"1 AVENUE ALBERT RAMBOZ","ascenseur":false,"commune":"Feyzin","desserte":"64:R,64:A","escalator":false,"gid":28645,"id":47869,"insee":"69276","last_update":"2025-10-28 05:04:22.737468","last_update_fme":"2025-10-28 05:04:22.737468","lat":45.679748983346,"localise_face_a_adresse":null,"lon":4.846192977243,"nom":"Ramboz Bitumes","pmr":false,"zone":"1"},{"adresse":"1 RUE DE TURIN","ascenseur":false,"commune":"Lyon 7e Arrondissement","desserte":"JD976:R,JD978:R,JD980:R","escalator":false,"gid":28703,"id":48024,"insee":"69387","last_update":"2025-10-28 05:04:22.742112","last_update_fme":"2025-10-28 05:04:22.742112","lat":45.7273110087,"localise_face_a_adresse":null,"lon":4.822414988504,"nom":"Cité Scolaire Inter. Z2","pmr":false,"zone":"1"},{"adresse":"59 RUE DES GIRONDINS","ascenseur":false,"commune":"Lyon 7e Arrondissement","desserte":"C7:A","escalator":false,"gid":28713,"id":48043,"insee":"69387","last_update":"2025-10-28 05:04:22.742871","last_update_fme":"2025-10-28 05:04:22.742871","lat":45.738059996594,"localise_face_a_adresse":null,"lon":4.834707991524,"nom":"Simone de Beauvoir","pmr":true,"zone":"1"},{"adresse":"0 RUE PROFESSEUR GUERIN","ascenseur":false,"commune":"Lyon 9e Arrondissement","desserte":"14:R,19:A,3:A,45:A,72:A,86:A,98:A,C21:R","escalator":false,"gid":24654,"id":10119,"insee":"69389","last_update":"2025-10-28 05:04:22.424662","last_update_fme":"2025-10-28 05:04:22.424662","lat":45.765360056408,"localise_face_a_adresse":null,"lon":4.801702398783,"nom":"La Vallonnière","pmr":true,"zone":"1"},{"adresse":"14 AVENUE DOCTEUR SCHWEITZER","ascenseur":false,"commune":"Meyzieu","desserte":"T3:A,T3:R","escalator":false,"gid":15215,"id":35676,"insee":"69282","last_update":"2025-10-28 05:04:22.785865","last_update_fme":"2025-10-28 05:04:22.785865","lat":45.767626613648,"localise_face_a_adresse":false,"lon":5.031550669936,"nom":"Meyzieu Z.i.","pmr":true,"zone":"1"},{"adresse":"40 CHEMIN DE PAISY","ascenseur":false,"commune":"Limonest","desserte":"21:A,GE4:A,GE4:R","escalator":false,"gid":24831,"id":10532,"insee":"69116","last_update":"2025-10-28 05:04:22.438264","last_update_fme":"2025-10-28 05:04:22.438264","lat":45.80489399223,"localise_face_a_adresse":null,"lon":4.772189010098,"nom":"Echangeur Sans-Souci","pmr":true,"zone":"1"},{"adresse":"40 CHEMIN DE PAISY","ascenseur":false,"commune":"Limonest","desserte":"21:R","escalator":false,"gid":24832,"id":10533,"insee":"69116","last_update":"2025-10-28 05:04:22.438331","last_update_fme":"2025-10-28 05:04:22.438331","lat":45.804647971165,"localise_face_a_adresse":null,"lon":4.772572056248,"nom":"Echangeur Sans-Souci","pmr":true,"zone":"1"},{"adresse":"114 ROUTE DE BELLEVUE","ascenseur":false,"commune":"Limonest","desserte":"21:R,JD35:A","escalator":false,"gid":24833,"id":10543,"insee":"69116","last_update":"2025-10-28 05:04:22.438401","last_update_fme":"2025-10-28 05:04:22.438401","lat":45.840619866284,"localise_face_a_adresse":null,"lon":4.772330032398,"nom":"Limonest Maison Retraite","pmr":true,"zone":"1"},{"adresse":"4 RUE FERNAND PELLOUTIER","ascenseur":false,"commune":"Vénissieux","desserte":"87:A","escalator":false,"gid":24834,"id":10547,"insee":"69259","last_update":"2025-10-28 05:04:22.438476","last_update_fme":"2025-10-28 05:04:22.438476","lat":45.691259627382,"localise_face_a_adresse":null,"lon":4.900609767801,"nom":"Timbaud","pmr":true,"zone":"1"},{"adresse":"0 AVENUE DE CORBETTA","ascenseur":false,"commune":"Corbas","desserte":"54:A,76:A","escalator":false,"gid":24835,"id":10552,"insee":"69273","last_update":"2025-10-28 05:04:22.438556","last_update_fme":"2025-10-28 05:04:22.438556","lat":45.662029984939,"localise_face_a_adresse":null,"lon":4.895170984983,"nom":"Jacques Prévert","pmr":true,"zone":"1"},{"adresse":"2 AVENUE DU CHATER","ascenseur":false,"commune":"Francheville","desserte":"14:R,JD975:A","escalator":false,"gid":24836,"id":10565,"insee":"69089","last_update":"2025-10-28 05:04:22.438651","last_update_fme":"2025-10-28 05:04:22.438651","lat":45.75088599039,"localise_face_a_adresse":null,"lon":4.771788956618,"nom":"Aquavert","pmr":true,"zone":"1"},{"adresse":"56 RUE SERGENT MICHEL BERTHET","ascenseur":false,"commune":"Lyon 9e Arrondissement","desserte":"19:R,45:R,90:R","escalator":false,"gid":24837,"id":10566,"insee":"69389","last_update":"2025-10-28 05:04:22.438729","last_update_fme":"2025-10-28 05:04:22.438729","lat":45.766900853928,"localise_face_a_adresse":null,"lon":4.80449802947,"nom":"Gorge de Loup","pmr":true,"zone":"1"},{"adresse":"12 RUE GORGE DE LOUP","ascenseur":false,"commune":"Lyon 9e Arrondissement","desserte":"66:A","escalator":false,"gid":24904,"id":10836,"insee":"69389","last_update":"2025-10-28 05:04:22.443706","last_update_fme":"2025-10-28 05:04:22.443706","lat":45.770136944239,"localise_face_a_adresse":null,"lon":4.804694681123,"nom":"Leclair","pmr":true,"zone":"1"},{"adresse":"5B AVENUE LECLERC","ascenseur":false,"commune":"Lyon 7e Arrondissement","desserte":"34:A,60:A,BR60:A,JD982:A","escalator":false,"gid":24908,"id":10854,"insee":"69387","last_update":"2025-10-28 05:04:22.444059","last_update_fme":"2025-10-28 05:04:22.444059","lat":45.747398526011,"localise_face_a_adresse":null,"lon":4.833258091754,"nom":"Pont Gallieni RG","pmr":true,"zone":"1"},{"adresse":"1 AVENUE LECLERC","ascenseur":false,"commune":"Lyon 7e Arrondissement","desserte":"34:R,60:R,BR60:R,JD982:R","escalator":false,"gid":24909,"id":10855,"insee":"69387","last_update":"2025-10-28 05:04:22.444135","last_update_fme":"2025-10-28 05:04:22.444135","lat":45.746924513044,"localise_face_a_adresse":null,"lon":4.833120873359,"nom":"Pont Gallieni RG","pmr":true,"zone":"1"},{"adresse":"76 RUE GORGE DE LOUP","ascenseur":false,"commune":"Lyon 9e Arrondissement","desserte":"66:A","escalator":false,"gid":24910,"id":10861,"insee":"69389","last_update":"2025-10-28 05:04:22.444215","last_update_fme":"2025-10-28 05:04:22.444215","lat":45.769495993899,"localise_face_a_adresse":null,"lon":4.801250977875,"nom":"Joannès Masset","pmr":true,"zone":"1"},{"adresse":"2 AVENUE DU 2EME SPAHIS","ascenseur":false,"commune":"Saint-Germain-au-Mont-d'Or","desserte":"96:A,JD242:A","escalator":false,"gid":25083,"id":11426,"insee":"69207","last_update":"2025-10-28 05:04:22.457283","last_update_fme":"2025-10-28 05:04:22.457283","lat":45.889001527138,"localise_face_a_adresse":null,"lon":4.806173134209,"nom":"St Germain Four à Chaux","pmr":true,"zone":"2"},{"adresse":"1 AVENUE JACQUES BREL","ascenseur":false,"commune":"Saint-Germain-au-Mont-d'Or","desserte":"96:R,JD242:R","escalator":false,"gid":25084,"id":11427,"insee":"69207","last_update":"2025-10-28 05:04:22.457355","last_update_fme":"2025-10-28 05:04:22.457355","lat":45.888602188203,"localise_face_a_adresse":null,"lon":4.806322731926,"nom":"St Germain Four à Chaux","pmr":true,"zone":"2"},{"adresse":"2 RUE GABRIEL CORDIER","ascenseur":false,"commune":"Saint-Germain-au-Mont-d'Or","desserte":"21:R,96:R,96:A","escalator":false,"gid":25085,"id":11428,"insee":"69207","last_update":"2025-10-28 05:04:22.457428","last_update_fme":"2025-10-28 05:04:22.457428","lat":45.88929704423,"localise_face_a_adresse":null,"lon":4.800822043617,"nom":"St Germain Cités","pmr":false,"zone":"2"},{"adresse":"675 RUE CENTRALE","ascenseur":false,"commune":"Montanay","desserte":"97:A,97:R","escalator":false,"gid":25086,"id":11429,"insee":"69284","last_update":"2025-10-28 05:04:22.457503","last_update_fme":"2025-10-28 05:04:22.457503","lat":45.880958381684,"localise_face_a_adresse":null,"lon":4.862763773043,"nom":"La Poype","pmr":false,"zone":"1"},{"adresse":"272 RUE DU 11 NOVEMBRE 1918","ascenseur":false,"commune":"Solaize","desserte":"GE2:A,JD909:R,JD909:A","escalator":false,"gid":25087,"id":1143,"insee":"69296","last_update":"2025-10-28 05:04:22.457570","last_update_fme":"2025-10-28 05:04:22.457570","lat":45.645531562761,"localise_face_a_adresse":null,"lon":4.84217045166,"nom":"Hauts de Solaize","pmr":false,"zone":"2"},{"adresse":"696 RUE DE NEUVILLE","ascenseur":false,"commune":"Montanay","desserte":"97:A","escalator":false,"gid":25088,"id":11430,"insee":"69284","last_update":"2025-10-28 05:04:22.457645","last_update_fme":"2025-10-28 05:04:22.457645","lat":45.879522045413,"localise_face_a_adresse":null,"lon":4.853080989581,"nom":"Les Roses","pmr":true,"zone":"1"},{"adresse":"696 RUE DE NEUVILLE","ascenseur":false,"commune":"Montanay","desserte":"97:R","escalator":false,"gid":25089,"id":11431,"insee":"69284","last_update":"2025-10-28 05:04:22.457720","last_update_fme":"2025-10-28 05:04:22.457720","lat":45.879918845751,"localise_face_a_adresse":null,"lon":4.853720122548,"nom":"Les Roses","pmr":true,"zone":"1"},{"adresse":"11 BOULEVARD ANDRE BOULLOCHE","ascenseur":false,"commune":"Saint-Priest","desserte":"52:R,93:R,C17:R","escalator":false,"gid":27471,"id":43022,"insee":"69290","last_update":"2025-10-28 05:04:22.645341","last_update_fme":"2025-10-28 05:04:22.645341","lat":45.720234964647,"localise_face_a_adresse":null,"lon":4.923754470357,"nom":"Porte des Alpes","pmr":true,"zone":"1"},{"adresse":"1 BOULEVARD ANDRE BOULLOCHE","ascenseur":false,"commune":"Saint-Priest","desserte":"93:R","escalator":false,"gid":27472,"id":43024,"insee":"69290","last_update":"2025-10-28 05:04:22.645418","last_update_fme":"2025-10-28 05:04:22.645418","lat":45.719070499948,"localise_face_a_adresse":null,"lon":4.930523461798,"nom":"André Boulloche","pmr":true,"zone":"1"},{"adresse":"160 COURS DU TROISIEME MILLENAIRE","ascenseur":false,"commune":"Saint-Priest","desserte":"93:A","escalator":false,"gid":27473,"id":43025,"insee":"69290","last_update":"2025-10-28 05:04:22.645494","last_update_fme":"2025-10-28 05:04:22.645494","lat":45.71656200831,"localise_face_a_adresse":null,"lon":4.928370963991,"nom":"3ème Millénaire","pmr":true,"zone":"1"},{"adresse":"160 COURS DU TROISIEME MILLENAIRE","ascenseur":false,"commune":"Saint-Priest","desserte":"93:R","escalator":false,"gid":27474,"id":43026,"insee":"69290","last_update":"2025-10-28 05:04:22.645559","last_update_fme":"2025-10-28 05:04:22.645559","lat":45.716730109821,"localise_face_a_adresse":null,"lon":4.928575613919,"nom":"3ème Millénaire","pmr":true,"zone":"1"},{"adresse":"7 CHEMIN DE L ECULLY","ascenseur":false,"commune":"Collonges-au-Mont-d'Or","desserte":"71:A,71:R,JD181:R,JD54:A,JD70:A,JD71:A,JD819:R","escalator":false,"gid":28296,"id":47206,"insee":"69063","last_update":"2025-10-28 05:04:22.710330","last_update_fme":"2025-10-28 05:04:22.710330","lat":45.822626981401,"localise_face_a_adresse":null,"lon":4.837982985936,"nom":"Ecoles de Collonges","pmr":false,"zone":"1"},{"adresse":"17 AVENUE MARECHAL FOCH","ascenseur":false,"commune":"Tassin-la-Demi-Lune","desserte":"5:A","escalator":false,"gid":28642,"id":47864,"insee":"69244","last_update":"2025-10-28 05:04:22.737252","last_update_fme":"2025-10-28 05:04:22.737252","lat":45.760116032787,"localise_face_a_adresse":null,"lon":4.773633045012,"nom":"Tassin Leclerc","pmr":false,"zone":"1"},{"adresse":"80 RUE DE L EGALITE","ascenseur":false,"commune":"Décines-Charpieu","desserte":"16:R,JD137:A","escalator":false,"gid":28643,"id":47866,"insee":"69275","last_update":"2025-10-28 05:04:22.737317","last_update_fme":"2025-10-28 05:04:22.737317","lat":45.765180991316,"localise_face_a_adresse":null,"lon":4.966082059489,"nom":"Le Prainet","pmr":false,"zone":"1"},{"adresse":"65 RUE JEAN JAURES","ascenseur":false,"commune":"Bron","desserte":"24:R,79:R","escalator":false,"gid":24662,"id":10144,"insee":"69029","last_update":"2025-10-28 05:04:22.425306","last_update_fme":"2025-10-28 05:04:22.425306","lat":45.729971435137,"localise_face_a_adresse":null,"lon":4.905870669179,"nom":"Bron Jean Jaurès","pmr":true,"zone":"1"},{"adresse":"27 RUE ROGER SALENGRO","ascenseur":false,"commune":"Bron","desserte":"24:A,79:A","escalator":false,"gid":24663,"id":10145,"insee":"69029","last_update":"2025-10-28 05:04:22.425385","last_update_fme":"2025-10-28 05:04:22.425385","lat":45.730249955167,"localise_face_a_adresse":null,"lon":4.908436058488,"nom":"Bron Salengro","pmr":true,"zone":"1"},{"adresse":"28 RUE ROGER SALENGRO","ascenseur":false,"commune":"Bron","desserte":"24:R,79:R","escalator":false,"gid":24664,"id":10146,"insee":"69029","last_update":"2025-10-28 05:04:22.425457","last_update_fme":"2025-10-28 05:04:22.425457","lat":45.730768031133,"localise_face_a_adresse":null,"lon":4.908449984725,"nom":"Bron Salengro","pmr":true,"zone":"1"},{"adresse":"6 RUE DE VERDUN","ascenseur":false,"commune":"Bron","desserte":"24:A,79:A","escalator":false,"gid":24665,"id":10147,"insee":"69029","last_update":"2025-10-28 05:04:22.425534","last_update_fme":"2025-10-28 05:04:22.425534","lat":45.734033691764,"localise_face_a_adresse":null,"lon":4.908901065806,"nom":"Bron Hôtel de Ville","pmr":true,"zone":"1"},{"adresse":"1 RUE ROGER SALENGRO","ascenseur":false,"commune":"Bron","desserte":"24:R,79:R","escalator":false,"gid":24666,"id":10148,"insee":"69029","last_update":"2025-10-28 05:04:22.425606","last_update_fme":"2025-10-28 05:04:22.425606","lat":45.733193993244,"localise_face_a_adresse":null,"lon":4.908407948273,"nom":"Bron Hôtel de Ville","pmr":true,"zone":"1"},{"adresse":"77 COURS GAMBETTA","ascenseur":false,"commune":"Lyon 3e Arrondissement","desserte":"C11:R,C25:R,JD980:A,PL1:A","escalator":false,"gid":24667,"id":1015,"insee":"69383","last_update":"2025-10-28 05:04:22.425681","last_update_fme":"2025-10-28 05:04:22.425681","lat":45.751793455541,"localise_face_a_adresse":null,"lon":4.853310110918,"nom":"Garibaldi - Gambetta","pmr":true,"zone":"1"},{"adresse":"49 AVENUE CAMILLE ROUSSET","ascenseur":false,"commune":"Bron","desserte":"24:R,79:R,C17:A,JD971:A","escalator":false,"gid":24668,"id":10150,"insee":"69029","last_update":"2025-10-28 05:04:22.425747","last_update_fme":"2025-10-28 05:04:22.425747","lat":45.735639002659,"localise_face_a_adresse":null,"lon":4.910338673258,"nom":"Bron Jules Mas","pmr":true,"zone":"1"},{"adresse":"47 AVENUE DU PRESIDENT SALVADOR ALLENDE","ascenseur":false,"commune":"Bron","desserte":"79:A","escalator":false,"gid":24669,"id":10155,"insee":"69029","last_update":"2025-10-28 05:04:22.425822","last_update_fme":"2025-10-28 05:04:22.425822","lat":45.740646249225,"localise_face_a_adresse":null,"lon":4.929007930948,"nom":"Bron Léo Lagrange","pmr":true,"zone":"1"},{"adresse":"44 AVENUE DU PRESIDENT SALVADOR ALLENDE","ascenseur":false,"commune":"Bron","desserte":"79:R","escalator":false,"gid":24670,"id":10156,"insee":"69029","last_update":"2025-10-28 05:04:22.425897","last_update_fme":"2025-10-28 05:04:22.425897","lat":45.740278085065,"localise_face_a_adresse":null,"lon":4.928579205559,"nom":"Bron Léo Lagrange","pmr":true,"zone":"1"},{"adresse":"5 AVENUE EDOUARD HERRIOT","ascenseur":false,"commune":"Bron","desserte":"C17:A","escalator":false,"gid":24671,"id":10158,"insee":"69029","last_update":"2025-10-28 05:04:22.425964","last_update_fme":"2025-10-28 05:04:22.425964","lat":45.730253776931,"localise_face_a_adresse":null,"lon":4.901398090223,"nom":"Bron Libération","pmr":true,"zone":"1"},{"adresse":"16 ROUTE DE LIMONEST","ascenseur":false,"commune":"Dardilly","desserte":"3:R,GE4:R,JD151:A,JD171:A,JD32:A,JD843:A","escalator":false,"gid":24793,"id":10446,"insee":"69072","last_update":"2025-10-28 05:04:22.435426","last_update_fme":"2025-10-28 05:04:22.435426","lat":45.823594995459,"localise_face_a_adresse":null,"lon":4.75436399862,"nom":"Le Bouquis","pmr":true,"zone":"1"},{"adresse":"0 CHEMIN DE CHARRIERE","ascenseur":false,"commune":"Dardilly","desserte":"3:A,GE4:A,JD151:R,JD171:R,JD32:R,JD697:A,JD843:R","escalator":false,"gid":24794,"id":10447,"insee":"69072","last_update":"2025-10-28 05:04:22.435492","last_update_fme":"2025-10-28 05:04:22.435492","lat":45.822726347257,"localise_face_a_adresse":null,"lon":4.757298136484,"nom":"Les Marsaults","pmr":true,"zone":"1"},{"adresse":"0 BOULEVARD DE L UNIVERSITE","ascenseur":false,"commune":"Bron","desserte":"52:A","escalator":false,"gid":27510,"id":43305,"insee":"69029","last_update":"2025-10-28 05:04:22.648348","last_update_fme":"2025-10-28 05:04:22.648348","lat":45.726970983108,"localise_face_a_adresse":null,"lon":4.927032054893,"nom":"Triangle de Bron","pmr":true,"zone":"1"},{"adresse":"150 RUE LOUIS JOUVET","ascenseur":false,"commune":"Vénissieux","desserte":"79:A,79:R","escalator":false,"gid":27511,"id":43307,"insee":"69259","last_update":"2025-10-28 05:04:22.648417","last_update_fme":"2025-10-28 05:04:22.648417","lat":45.712053832032,"localise_face_a_adresse":null,"lon":4.880403239919,"nom":"La Borelle","pmr":true,"zone":"1"},{"adresse":"3 RUE MAURICE AUDIN","ascenseur":false,"commune":"Vaulx-en-Velin","desserte":"57:A","escalator":false,"gid":27512,"id":43309,"insee":"69256","last_update":"2025-10-28 05:04:22.648563","last_update_fme":"2025-10-28 05:04:22.648563","lat":45.779423038041,"localise_face_a_adresse":null,"lon":4.922483046105,"nom":"ENTPE Ecole Architecture","pmr":true,"zone":"1"},{"adresse":null,"ascenseur":null,"commune":null,"desserte":"JD344:A","escalator":null,"gid":20384,"id":21606,"insee":null,"last_update":"2025-10-28 05:04:22.176608","last_update_fme":"2025-10-28 05:04:22.176608","lat":45.983841,"localise_face_a_adresse":null,"lon":4.370835,"nom":"Ronno Maisons Neuves","pmr":false,"zone":"5"},{"adresse":null,"ascenseur":null,"commune":null,"desserte":"JD344:A","escalator":null,"gid":20385,"id":21607,"insee":null,"last_update":"2025-10-28 05:04:22.176682","last_update_fme":"2025-10-28 05:04:22.176682","lat":45.986728,"localise_face_a_adresse":null,"lon":4.397279,"nom":"Ronno La Petite Montagne","pmr":false,"zone":"5"},{"adresse":null,"ascenseur":null,"commune":null,"desserte":"JD344:A","escalator":null,"gid":20387,"id":21609,"insee":null,"last_update":"2025-10-28 05:04:22.176824","last_update_fme":"2025-10-28 05:04:22.176824","lat":45.983,"localise_face_a_adresse":null,"lon":4.363254,"nom":"Ronno Les Tardières","pmr":false,"zone":"5"},{"adresse":null,"ascenseur":null,"commune":null,"desserte":"JD412:R,JD412:A","escalator":null,"gid":20392,"id":21614,"insee":null,"last_update":"2025-10-28 05:04:22.177184","last_update_fme":"2025-10-28 05:04:22.177184","lat":45.858792,"localise_face_a_adresse":null,"lon":4.53557,"nom":"St-Romain-de-Popey Les Arnas","pmr":true,"zone":"3"},{"adresse":null,"ascenseur":null,"commune":null,"desserte":"JD404:A","escalator":null,"gid":20412,"id":21634,"insee":null,"last_update":"2025-10-28 05:04:22.178616","last_update_fme":"2025-10-28 05:04:22.178616","lat":45.850116,"localise_face_a_adresse":null,"lon":4.524117,"nom":"St-Romain-de-Popey Les Gouttes","pmr":false,"zone":"3"},{"adresse":null,"ascenseur":null,"commune":null,"desserte":"JD412:R","escalator":null,"gid":20413,"id":21635,"insee":null,"last_update":"2025-10-28 05:04:22.178689","last_update_fme":"2025-10-28 05:04:22.178689","lat":45.836142,"localise_face_a_adresse":null,"lon":4.543949,"nom":"St-Romain-de-Popey Ordilly","pmr":false,"zone":"3"},{"adresse":null,"ascenseur":null,"commune":null,"desserte":"JD412:A","escalator":null,"gid":20414,"id":21636,"insee":null,"last_update":"2025-10-28 05:04:22.178759","last_update_fme":"2025-10-28 05:04:22.178759","lat":45.836128,"localise_face_a_adresse":null,"lon":4.544078,"nom":"St-Romain-de-Popey Ordilly","pmr":false,"zone":"3"},{"adresse":null,"ascenseur":null,"commune":null,"desserte":"JD412:R","escalator":null,"gid":20415,"id":21637,"insee":null,"last_update":"2025-10-28 05:04:22.178831","last_update_fme":"2025-10-28 05:04:22.178831","lat":45.853631,"localise_face_a_adresse":null,"lon":4.5318,"nom":"St-Romain-de-Popey l'Ortet","pmr":false,"zone":"3"},{"adresse":null,"ascenseur":null,"commune":null,"desserte":"JD412:R,JD412:A","escalator":null,"gid":20416,"id":21638,"insee":null,"last_update":"2025-10-28 05:04:22.178905","last_update_fme":"2025-10-28 05:04:22.178905","lat":45.853429,"localise_face_a_adresse":null,"lon":4.5317,"nom":"St-Romain-de-Popey l'Ortet","pmr":false,"zone":"3"},{"adresse":null,"ascenseur":null,"commune":null,"desserte":"JD400:R,JD400:A,JD425:R","escalator":null,"gid":20519,"id":21755,"insee":null,"last_update":"2025-10-28 05:04:22.186242","last_update_fme":"2025-10-28 05:04:22.186242","lat":45.901776,"localise_face_a_adresse":null,"lon":4.432744,"nom":"Tarare La Patte d'Oie","pmr":false,"zone":"4"},{"adresse":"100 ROCADE DES MONTS D OR","ascenseur":false,"commune":"Saint-Didier-au-Mont-d'Or","desserte":"23:A,JD185:R,JD204:A,JD57:A,JD696:R,JD973:R","escalator":false,"gid":26206,"id":30013,"insee":"69194","last_update":"2025-10-28 05:04:22.541937","last_update_fme":"2025-10-28 05:04:22.541937","lat":45.818732998017,"localise_face_a_adresse":null,"lon":4.807649946482,"nom":"La Ferlatière","pmr":true,"zone":"1"},{"adresse":"5 CHEMIN DU MONTEILLIER","ascenseur":false,"commune":"Saint-Didier-au-Mont-d'Or","desserte":"20:A,23:R,JD185:A,JD204:R,JD57:R,JD696:A,JD973:A","escalator":false,"gid":26207,"id":30014,"insee":"69194","last_update":"2025-10-28 05:04:22.542004","last_update_fme":"2025-10-28 05:04:22.542004","lat":45.817092005669,"localise_face_a_adresse":null,"lon":4.806527010492,"nom":"Le Monteillier","pmr":true,"zone":"1"},{"adresse":"307 BOULEVARD DE BALMONT","ascenseur":false,"commune":"Lyon 9e Arrondissement","desserte":"21:R,61:R,89:R,C6:R","escalator":false,"gid":26211,"id":30018,"insee":"69389","last_update":"2025-10-28 05:04:22.542289","last_update_fme":"2025-10-28 05:04:22.542289","lat":45.785366101664,"localise_face_a_adresse":null,"lon":4.800630876815,"nom":"La Piemente","pmr":true,"zone":"1"},{"adresse":"131 RUE DE SAINT CYR","ascenseur":false,"commune":"Saint-Didier-au-Mont-d'Or","desserte":"2:R,20:R,23:R,71:R,84:R","escalator":false,"gid":26284,"id":3038,"insee":"69194","last_update":"2025-10-28 05:04:22.547686","last_update_fme":"2025-10-28 05:04:22.547686","lat":45.793433662702,"localise_face_a_adresse":null,"lon":4.811981245339,"nom":"Val Rosay","pmr":true,"zone":"1"},{"adresse":"89 RUE MARIUS BERLIET","ascenseur":false,"commune":"Lyon 8e Arrondissement","desserte":"C25:R,PL1:A","escalator":false,"gid":26285,"id":30380,"insee":"69388","last_update":"2025-10-28 05:04:22.547752","last_update_fme":"2025-10-28 05:04:22.547752","lat":45.740881529549,"localise_face_a_adresse":null,"lon":4.863031119567,"nom":"Saint-Agnan","pmr":true,"zone":"1"},{"adresse":null,"ascenseur":null,"commune":null,"desserte":"JD400:R,JD400:A,JD417:A,JD417:R,JD420:R","escalator":null,"gid":20520,"id":21760,"insee":null,"last_update":"2025-10-28 05:04:22.186319","last_update_fme":"2025-10-28 05:04:22.186319","lat":45.89193,"localise_face_a_adresse":null,"lon":4.411446,"nom":"Tarare Route de Paris","pmr":false,"zone":"4"},{"adresse":null,"ascenseur":null,"commune":null,"desserte":"164:R","escalator":null,"gid":20521,"id":21761,"insee":null,"last_update":"2025-10-28 05:04:22.186388","last_update_fme":"2025-10-28 05:04:22.186388","lat":45.896673,"localise_face_a_adresse":null,"lon":4.435634,"nom":"Tarare Place Simonet","pmr":false,"zone":"4"},{"adresse":null,"ascenseur":null,"commune":null,"desserte":"216:A,217:A,JD416:A,JD420:A,JD420:R","escalator":null,"gid":20522,"id":21762,"insee":null,"last_update":"2025-10-28 05:04:22.186458","last_update_fme":"2025-10-28 05:04:22.186458","lat":45.890162,"localise_face_a_adresse":null,"lon":4.444619,"nom":"Tarare Tennis","pmr":false,"zone":"4"},{"adresse":null,"ascenseur":null,"commune":null,"desserte":"JD351:A","escalator":null,"gid":20614,"id":21857,"insee":null,"last_update":"2025-10-28 05:04:22.193113","last_update_fme":"2025-10-28 05:04:22.193113","lat":46.036001,"localise_face_a_adresse":null,"lon":4.366907,"nom":"St-V.-de-R. Chez Faurezien","pmr":false,"zone":"5"},{"adresse":null,"ascenseur":null,"commune":null,"desserte":"JD404:A","escalator":null,"gid":20650,"id":21893,"insee":null,"last_update":"2025-10-28 05:04:22.195717","last_update_fme":"2025-10-28 05:04:22.195717","lat":45.823513,"localise_face_a_adresse":null,"lon":4.535398,"nom":"Savigny Taylan","pmr":false,"zone":"3"},{"adresse":null,"ascenseur":null,"commune":null,"desserte":"JD386:R","escalator":null,"gid":20651,"id":21894,"insee":null,"last_update":"2025-10-28 05:04:22.195791","last_update_fme":"2025-10-28 05:04:22.195791","lat":46.119359,"localise_face_a_adresse":null,"lon":4.483821,"nom":"Claveisolles Claveisette","pmr":false,"zone":"5"},{"adresse":"61 ROUTE DE GRENOBLE","ascenseur":false,"commune":"Saint-Priest","desserte":"26:R,26:A","escalator":false,"gid":24672,"id":10165,"insee":"69290","last_update":"2025-10-28 05:04:22.426032","last_update_fme":"2025-10-28 05:04:22.426032","lat":45.705623714202,"localise_face_a_adresse":null,"lon":4.992008818145,"nom":"Manissieux P. Blanche","pmr":true,"zone":"1"},{"adresse":"43 RUE FLACHET","ascenseur":false,"commune":"Villeurbanne","desserte":"69:A,JD977:A,JD977:R","escalator":false,"gid":24673,"id":10166,"insee":"69266","last_update":"2025-10-28 05:04:22.426106","last_update_fme":"2025-10-28 05:04:22.426106","lat":45.768095039318,"localise_face_a_adresse":null,"lon":4.889762962259,"nom":"Flachet - Alain Gilles","pmr":true,"zone":"1"},{"adresse":"1 RUE DE BELFORT","ascenseur":false,"commune":"Lyon 4e Arrondissement","desserte":"C13:A,PL2:A","escalator":false,"gid":24674,"id":10169,"insee":"69384","last_update":"2025-10-28 05:04:22.426180","last_update_fme":"2025-10-28 05:04:22.426180","lat":45.77574200047,"localise_face_a_adresse":null,"lon":4.834897034921,"nom":"Austerlitz","pmr":false,"zone":"1"},{"adresse":"83 RUE DES BIENVENUS","ascenseur":false,"commune":"Villeurbanne","desserte":"C26:R","escalator":false,"gid":24675,"id":10170,"insee":"69266","last_update":"2025-10-28 05:04:22.426245","last_update_fme":"2025-10-28 05:04:22.426245","lat":45.771713239993,"localise_face_a_adresse":null,"lon":4.885246434477,"nom":"Bienvenus - Pressensé","pmr":true,"zone":"1"},{"adresse":"45 RUE EDOUARD VAILLANT","ascenseur":false,"commune":"Villeurbanne","desserte":"C26:A","escalator":false,"gid":24676,"id":10171,"insee":"69266","last_update":"2025-10-28 05:04:22.426319","last_update_fme":"2025-10-28 05:04:22.426319","lat":45.775383354497,"localise_face_a_adresse":null,"lon":4.880193895258,"nom":"Perroncel","pmr":true,"zone":"1"},{"adresse":"174 RUE NICOLAS GARNIER","ascenseur":false,"commune":"Villeurbanne","desserte":"C8:R","escalator":false,"gid":24677,"id":10175,"insee":"69266","last_update":"2025-10-28 05:04:22.426460","last_update_fme":"2025-10-28 05:04:22.426460","lat":45.754564470275,"localise_face_a_adresse":null,"lon":4.916817694219,"nom":"Legay","pmr":true,"zone":"1"},{"adresse":"95 RUE NICOLAS GARNIER","ascenseur":false,"commune":"Villeurbanne","desserte":"C8:A","escalator":false,"gid":24678,"id":10176,"insee":"69266","last_update":"2025-10-28 05:04:22.426528","last_update_fme":"2025-10-28 05:04:22.426528","lat":45.754668020398,"localise_face_a_adresse":null,"lon":4.917897045087,"nom":"Legay","pmr":true,"zone":"1"},{"adresse":"57 COURS GAMBETTA","ascenseur":false,"commune":"Lyon 3e Arrondissement","desserte":"C11:R","escalator":false,"gid":24679,"id":10177,"insee":"69383","last_update":"2025-10-28 05:04:22.426617","last_update_fme":"2025-10-28 05:04:22.426617","lat":45.752901028826,"localise_face_a_adresse":null,"lon":4.849996944004,"nom":"Abondance","pmr":true,"zone":"1"},{"adresse":"155B AVENUE JEAN MERMOZ","ascenseur":false,"commune":"Lyon 8e Arrondissement","desserte":"C15:R,C15E:R,PL1:A","escalator":false,"gid":24681,"id":10185,"insee":"69388","last_update":"2025-10-28 05:04:22.426761","last_update_fme":"2025-10-28 05:04:22.426761","lat":45.730901956467,"localise_face_a_adresse":null,"lon":4.886871957775,"nom":"Mermoz - Pinel","pmr":true,"zone":"1"},{"adresse":null,"ascenseur":null,"commune":null,"desserte":"216:R,217:R,JD416:R,JD420:R","escalator":null,"gid":20523,"id":21763,"insee":null,"last_update":"2025-10-28 05:04:22.186533","last_update_fme":"2025-10-28 05:04:22.186533","lat":45.890196,"localise_face_a_adresse":null,"lon":4.444479,"nom":"Tarare Tennis","pmr":false,"zone":"4"},{"adresse":null,"ascenseur":null,"commune":null,"desserte":"JD420:R","escalator":null,"gid":20525,"id":21765,"insee":null,"last_update":"2025-10-28 05:04:22.186629","last_update_fme":"2025-10-28 05:04:22.186629","lat":45.890689,"localise_face_a_adresse":null,"lon":4.44452,"nom":"Tarare Vert Galant","pmr":true,"zone":"4"},{"adresse":null,"ascenseur":null,"commune":null,"desserte":"JD406:R","escalator":null,"gid":20526,"id":21766,"insee":null,"last_update":"2025-10-28 05:04:22.186700","last_update_fme":"2025-10-28 05:04:22.186700","lat":45.823913,"localise_face_a_adresse":null,"lon":4.450726,"nom":"Montrottier Albigny","pmr":false,"zone":"4"},{"adresse":"1073 AVENUE VICTOR HUGO","ascenseur":false,"commune":"Rillieux-la-Pape","desserte":"33:A","escalator":false,"gid":24797,"id":1045,"insee":"69286","last_update":"2025-10-28 05:04:22.435717","last_update_fme":"2025-10-28 05:04:22.435717","lat":45.820772099843,"localise_face_a_adresse":null,"lon":4.880441056531,"nom":"Genevrey","pmr":true,"zone":"1"},{"adresse":"39 CHEMIN DES PEUPLIERS","ascenseur":false,"commune":"Dardilly","desserte":"89:A,89D:A,GE4:R,JD171:A,JD33:A,JD841:A","escalator":false,"gid":24798,"id":10450,"insee":"69072","last_update":"2025-10-28 05:04:22.435797","last_update_fme":"2025-10-28 05:04:22.435797","lat":45.814161713651,"localise_face_a_adresse":null,"lon":4.758349693982,"nom":"Dardilly Peupliers","pmr":true,"zone":"1"},{"adresse":"25 AVENUE DU DOCTEUR TERVER","ascenseur":false,"commune":"Écully","desserte":"55:A,JD151:A,JD172:R","escalator":false,"gid":24905,"id":1084,"insee":"69081","last_update":"2025-10-28 05:04:22.443771","last_update_fme":"2025-10-28 05:04:22.443771","lat":45.772338873987,"localise_face_a_adresse":null,"lon":4.777666640365,"nom":"Grandvaux","pmr":false,"zone":"1"},{"adresse":"61 RUE DU 8 MAI 1945","ascenseur":false,"commune":"Craponne","desserte":"C22:R,C22E:R,JD162:A,JD173:A","escalator":false,"gid":24906,"id":10845,"insee":"69069","last_update":"2025-10-28 05:04:22.443924","last_update_fme":"2025-10-28 05:04:22.443924","lat":45.737972450289,"localise_face_a_adresse":null,"lon":4.716498954432,"nom":"Craponne Val d'Yzeron","pmr":true,"zone":"1"},{"adresse":"18 AVENUE DU DOCTEUR TERVER","ascenseur":false,"commune":"Écully","desserte":"55:R,JD172:A","escalator":false,"gid":24907,"id":1085,"insee":"69081","last_update":"2025-10-28 05:04:22.443990","last_update_fme":"2025-10-28 05:04:22.443990","lat":45.771523805038,"localise_face_a_adresse":null,"lon":4.776652940893,"nom":"Grandvaux","pmr":false,"zone":"1"},{"adresse":null,"ascenseur":null,"commune":null,"desserte":"JD406:A","escalator":null,"gid":20527,"id":21767,"insee":null,"last_update":"2025-10-28 05:04:22.186777","last_update_fme":"2025-10-28 05:04:22.186777","lat":45.823958,"localise_face_a_adresse":null,"lon":4.450812,"nom":"Montrottier Albigny","pmr":false,"zone":"4"},{"adresse":null,"ascenseur":null,"commune":null,"desserte":"JD406:R,JD419:R","escalator":null,"gid":20528,"id":21768,"insee":null,"last_update":"2025-10-28 05:04:22.186853","last_update_fme":"2025-10-28 05:04:22.186853","lat":45.790023,"localise_face_a_adresse":null,"lon":4.46644,"nom":"Montrottier Le Bourg","pmr":false,"zone":"4"},{"adresse":null,"ascenseur":null,"commune":null,"desserte":"JD348:R,JD352:R,JD379:R","escalator":null,"gid":20612,"id":21855,"insee":null,"last_update":"2025-10-28 05:04:22.192982","last_update_fme":"2025-10-28 05:04:22.192982","lat":46.057249,"localise_face_a_adresse":null,"lon":4.395758,"nom":"St-V.-de-R. Chem. des Noirs","pmr":false,"zone":"5"},{"adresse":null,"ascenseur":null,"commune":null,"desserte":"JD719:R,JD725:R","escalator":null,"gid":20785,"id":23340,"insee":null,"last_update":"2025-10-28 05:04:22.205436","last_update_fme":"2025-10-28 05:04:22.205436","lat":45.633743,"localise_face_a_adresse":null,"lon":4.638685,"nom":"Chaussan Le Bourg","pmr":false,"zone":"3"},{"adresse":null,"ascenseur":null,"commune":null,"desserte":"JD714:A","escalator":null,"gid":20786,"id":23341,"insee":null,"last_update":"2025-10-28 05:04:22.205510","last_update_fme":"2025-10-28 05:04:22.205510","lat":45.647143,"localise_face_a_adresse":null,"lon":4.647089,"nom":"Chaussan Le Haut De Richoud","pmr":false,"zone":"3"},{"adresse":"6 RUE DE LA REPUBLIQUE","ascenseur":false,"commune":"Genas","desserte":"296:A,C200:R,JD120:R,JD130:A,JD25:R,JD294:A,JD295:A,JD941:R,JD943:R","escalator":false,"gid":24683,"id":1019,"insee":"69277","last_update":"2025-10-28 05:04:22.426914","last_update_fme":"2025-10-28 05:04:22.426914","lat":45.732551036464,"localise_face_a_adresse":null,"lon":4.996511975821,"nom":"Genas Place République","pmr":true,"zone":"2"},{"adresse":"46 RUE PASTEUR","ascenseur":false,"commune":"Mions","desserte":"62:R,87:R","escalator":false,"gid":24684,"id":10190,"insee":"69283","last_update":"2025-10-28 05:04:22.426980","last_update_fme":"2025-10-28 05:04:22.426980","lat":45.665026586521,"localise_face_a_adresse":null,"lon":4.959484283065,"nom":"Résidence Marianne","pmr":true,"zone":"1"},{"adresse":"1 PLACE AMBROISE COURTOIS","ascenseur":false,"commune":"Lyon 8e Arrondissement","desserte":"C16:A","escalator":false,"gid":24685,"id":10191,"insee":"69388","last_update":"2025-10-28 05:04:22.427049","last_update_fme":"2025-10-28 05:04:22.427049","lat":45.74532999244,"localise_face_a_adresse":null,"lon":4.871802046395,"nom":"Monplaisir Lumière","pmr":true,"zone":"1"},{"adresse":"24 BOULEVARD DES CANUTS","ascenseur":false,"commune":"Lyon 4e Arrondissement","desserte":"2:A,33:A","escalator":false,"gid":24686,"id":10196,"insee":"69384","last_update":"2025-10-28 05:04:22.427121","last_update_fme":"2025-10-28 05:04:22.427121","lat":45.776807909637,"localise_face_a_adresse":null,"lon":4.829100458978,"nom":"Les Canuts","pmr":true,"zone":"1"},{"adresse":"20 BOULEVARD DES CANUTS","ascenseur":false,"commune":"Lyon 4e Arrondissement","desserte":"2:R,33:R","escalator":false,"gid":24687,"id":10197,"insee":"69384","last_update":"2025-10-28 05:04:22.427195","last_update_fme":"2025-10-28 05:04:22.427195","lat":45.776131363798,"localise_face_a_adresse":null,"lon":4.829571472879,"nom":"Les Canuts","pmr":true,"zone":"1"},{"adresse":"48 BOULEVARD DES CANUTS","ascenseur":false,"commune":"Lyon 4e Arrondissement","desserte":"2:A,33:A","escalator":false,"gid":24688,"id":10198,"insee":"69384","last_update":"2025-10-28 05:04:22.427275","last_update_fme":"2025-10-28 05:04:22.427275","lat":45.778830021554,"localise_face_a_adresse":null,"lon":4.827668997579,"nom":"Hénon","pmr":true,"zone":"1"},{"adresse":"28 RUE DE LA CHARITE","ascenseur":false,"commune":"Lyon 2e Arrondissement","desserte":"S1:R","escalator":false,"gid":24874,"id":10680,"insee":"69382","last_update":"2025-10-28 05:04:22.441511","last_update_fme":"2025-10-28 05:04:22.441511","lat":45.753736296306,"localise_face_a_adresse":null,"lon":4.832002705498,"nom":"Ste Hélène","pmr":false,"zone":"1"},{"adresse":"99 RUE PRESIDENT EDOUARD HERRIOT","ascenseur":false,"commune":"Lyon 2e Arrondissement","desserte":"S1:A","escalator":false,"gid":24875,"id":10683,"insee":"69382","last_update":"2025-10-28 05:04:22.441584","last_update_fme":"2025-10-28 05:04:22.441584","lat":45.75892275286,"localise_face_a_adresse":null,"lon":4.833948284832,"nom":"Simon Maupin","pmr":true,"zone":"1"},{"adresse":"1 PLACE D ARSONVAL","ascenseur":false,"commune":"Lyon 3e Arrondissement","desserte":"C13:R,C26:A","escalator":false,"gid":24911,"id":1087,"insee":"69383","last_update":"2025-10-28 05:04:22.444289","last_update_fme":"2025-10-28 05:04:22.444289","lat":45.742783890382,"localise_face_a_adresse":null,"lon":4.878841265531,"nom":"Grange Blanche","pmr":true,"zone":"1"},{"adresse":"117 RUE GRANDE DE SAINT CLAIR","ascenseur":false,"commune":"Caluire-et-Cuire","desserte":"59:R,9:R,JD203:A","escalator":false,"gid":24923,"id":10896,"insee":"69034","last_update":"2025-10-28 05:04:22.445146","last_update_fme":"2025-10-28 05:04:22.445146","lat":45.79010388212,"localise_face_a_adresse":null,"lon":4.857289748452,"nom":"Les Eaux","pmr":true,"zone":"1"},{"adresse":"17 RUE MARIUS BERLIET","ascenseur":false,"commune":"Lyon 8e Arrondissement","desserte":"C25:A,PL1:R","escalator":false,"gid":26281,"id":30366,"insee":"69388","last_update":"2025-10-28 05:04:22.547469","last_update_fme":"2025-10-28 05:04:22.547469","lat":45.745750026621,"localise_face_a_adresse":null,"lon":4.859195065933,"nom":"Lycee Colbert","pmr":true,"zone":"1"},{"adresse":"28 PROMENADE LEA ET NAPOLEON BULLUKIAN","ascenseur":false,"commune":"Lyon 8e Arrondissement","desserte":"24:A,34:R","escalator":false,"gid":26282,"id":30368,"insee":"69388","last_update":"2025-10-28 05:04:22.547535","last_update_fme":"2025-10-28 05:04:22.547535","lat":45.741388035425,"localise_face_a_adresse":null,"lon":4.879255008397,"nom":"Léon Bérard","pmr":true,"zone":"1"},{"adresse":"466 CHEMIN DE WETTE FAYS","ascenseur":false,"commune":"Caluire-et-Cuire","desserte":"59:A,9:A,JD202:R,JD203:R","escalator":false,"gid":24924,"id":10897,"insee":"69034","last_update":"2025-10-28 05:04:22.445220","last_update_fme":"2025-10-28 05:04:22.445220","lat":45.789672649424,"localise_face_a_adresse":null,"lon":4.85805485397,"nom":"Les Eaux","pmr":true,"zone":"1"},{"adresse":"4 RUE DU STADE","ascenseur":false,"commune":"Irigny","desserte":"15:R,18:R,JD267:A","escalator":false,"gid":26328,"id":30529,"insee":"69100","last_update":"2025-10-28 05:04:22.550919","last_update_fme":"2025-10-28 05:04:22.550919","lat":45.689815986415,"localise_face_a_adresse":null,"lon":4.822552985682,"nom":"Le Péage","pmr":true,"zone":"1"},{"adresse":"157 RUE GRANDE DE SAINT CLAIR","ascenseur":false,"commune":"Caluire-et-Cuire","desserte":"59:R,9:R,JD203:A","escalator":false,"gid":24925,"id":10898,"insee":"69034","last_update":"2025-10-28 05:04:22.445285","last_update_fme":"2025-10-28 05:04:22.445285","lat":45.791145847479,"localise_face_a_adresse":null,"lon":4.860194033355,"nom":"St-Clair Square Brosset","pmr":true,"zone":"1"},{"adresse":"62 ROUTE DE CORBAS","ascenseur":false,"commune":"Vénissieux","desserte":"54:A","escalator":false,"gid":24927,"id":10900,"insee":"69259","last_update":"2025-10-28 05:04:22.445430","last_update_fme":"2025-10-28 05:04:22.445430","lat":45.686257097031,"localise_face_a_adresse":null,"lon":4.89183639587,"nom":"Henaff","pmr":true,"zone":"1"},{"adresse":"62 ROUTE DE CORBAS","ascenseur":false,"commune":"Vénissieux","desserte":"54:R","escalator":false,"gid":24928,"id":10901,"insee":"69259","last_update":"2025-10-28 05:04:22.445497","last_update_fme":"2025-10-28 05:04:22.445497","lat":45.685801035416,"localise_face_a_adresse":null,"lon":4.892364010109,"nom":"Henaff","pmr":true,"zone":"1"},{"adresse":"0 RUE DE LA CROIX ROUGE","ascenseur":false,"commune":"Saint-Symphorien-d'Ozon","desserte":"39:R,JD909:R,JD909:A","escalator":false,"gid":25099,"id":11477,"insee":"69291","last_update":"2025-10-28 05:04:22.458439","last_update_fme":"2025-10-28 05:04:22.458439","lat":45.638906020698,"localise_face_a_adresse":null,"lon":4.853399027636,"nom":"Solaize Croix Rouge","pmr":true,"zone":"2"},{"adresse":"24 RUE DE L EGLISE","ascenseur":false,"commune":"Francheville","desserte":"C20:A,C20E:A,JD211:R","escalator":false,"gid":25127,"id":11717,"insee":"69089","last_update":"2025-10-28 05:04:22.460573","last_update_fme":"2025-10-28 05:04:22.460573","lat":45.737636262255,"localise_face_a_adresse":null,"lon":4.761640697354,"nom":"Francheville Doulline","pmr":true,"zone":"1"},{"adresse":"368 AVENUE JEAN JAURES","ascenseur":false,"commune":"Décines-Charpieu","desserte":"296:A,JD121:R,JD135:A,JD136:A,JD294:A,JD295:A,JD940:A,JD940:R,JD971:A","escalator":false,"gid":25130,"id":11728,"insee":"69275","last_update":"2025-10-28 05:04:22.460873","last_update_fme":"2025-10-28 05:04:22.460873","lat":45.772373954823,"localise_face_a_adresse":null,"lon":4.97477804104,"nom":"Décines Esplanade","pmr":true,"zone":"1"},{"adresse":"29A RUE DU STADE","ascenseur":false,"commune":"Irigny","desserte":"15:A","escalator":false,"gid":26329,"id":30532,"insee":"69100","last_update":"2025-10-28 05:04:22.550993","last_update_fme":"2025-10-28 05:04:22.550993","lat":45.690278922552,"localise_face_a_adresse":null,"lon":4.826289356702,"nom":"Yvours","pmr":true,"zone":"1"},{"adresse":"368 AVENUE JEAN JAURES","ascenseur":false,"commune":"Décines-Charpieu","desserte":"57:A,JD121:A,JD135:R,JD294:R,JD295:R,JD971:R","escalator":false,"gid":25131,"id":11729,"insee":"69275","last_update":"2025-10-28 05:04:22.460943","last_update_fme":"2025-10-28 05:04:22.460943","lat":45.772543017601,"localise_face_a_adresse":null,"lon":4.974129986902,"nom":"Décines Esplanade","pmr":true,"zone":"1"},{"adresse":null,"ascenseur":null,"commune":null,"desserte":"211:R,213:A,JD720:R,JD750:R,JD752:R,JD914:R,JD999:A","escalator":null,"gid":20777,"id":23332,"insee":null,"last_update":"2025-10-28 05:04:22.204866","last_update_fme":"2025-10-28 05:04:22.204866","lat":45.605875,"localise_face_a_adresse":null,"lon":4.843628,"nom":"Communay La Guicharde","pmr":true,"zone":"2"},{"adresse":null,"ascenseur":null,"commune":null,"desserte":"211:A,JD720:A","escalator":null,"gid":20778,"id":23333,"insee":null,"last_update":"2025-10-28 05:04:22.204937","last_update_fme":"2025-10-28 05:04:22.204937","lat":45.595093,"localise_face_a_adresse":null,"lon":4.853399,"nom":"Communay Le Limon","pmr":true,"zone":"2"},{"adresse":null,"ascenseur":null,"commune":null,"desserte":"211:R,JD720:R,JD914:R","escalator":null,"gid":20779,"id":23334,"insee":null,"last_update":"2025-10-28 05:04:22.205011","last_update_fme":"2025-10-28 05:04:22.205011","lat":45.594948,"localise_face_a_adresse":null,"lon":4.853291,"nom":"Communay Le Limon","pmr":true,"zone":"2"},